"station_id","station_name","station_address","lat","lon"
"74DA38F207E4","苗栗縣縣立南河國小","[363]苗栗縣公館鄉南河村二鄰21號","24.531","120.853"
"74DA38F7C37A","市立民族國小","臺北市松山區民生東路4段97巷7號","25.059","121.551"
"74DA38F207E8","苗栗縣縣立建功國小","[360]苗栗縣苗栗市中正路241號","24.564","120.824"
"74DA38F207F4","苗栗縣縣立開礦國小","[363]苗栗縣公館鄉開礦村九鄰143號","24.46","120.863"
"74DA38F20ABC","台東縣縣立月眉國小","[956]臺東縣關山鎮月眉里盛豐路二鄰1號","23.009","121.147"
"08BEAC09FFB6","雲林縣縣立橋頭國小","雲林縣麥寮鄉橋頭村仁德路二四八號","23.7981503","120.2729719"
"74DA38F7C4BA","臺北市備品","臺北市","25.001","121.524"
"74DA38F21008","高雄市市立蔡文國小","高雄市蔡文國小 高雄市路竹區國昌路548號","22.86","120.255"
"74DA38EBF8C2","花蓮縣立宜昌國中","[973]花蓮縣吉安鄉宜昌1街41號","23.972","121.587"
"74DA38F2080A","高雄市市立左營國小","高雄市左營國小 高雄市左營區實踐路42號","22.691","120.293"
"74DA38F209C8","屏東縣縣立長興國小","[908]屏東縣長治鄉新潭村潭頭路50號","22.677","120.526"
"74DA38F20BC8","高雄市市立八卦國小","高雄市八卦國小 高雄市仁武區八卦里永仁街555號","22.689","120.333"
"74DA38F20E76","苗栗縣縣立栗林國小","[364]苗栗縣大湖鄉栗林村四份61號","24.373","120.842"
"08BEAC0A0744","桃園市市立中埔國小","桃園市桃園區永安路1054號","25.02094499","121.2926566"
"74DA38F20FEA","高雄市市立大社國小","高雄市大社國小 高雄市路竹區大社路243號","22.866","120.264"
"74DA38F20D04","苗栗縣縣立南和國中","[357]苗栗縣通霄鎮南和里9鄰112之1號","24.447","120.721"
"08BEAC0A04F4","桃園市市立圳頭國小","桃園市大園區圳頭路850巷30號","25.072","121.205"
"74DA38F207FA","高雄市市立登發國小","高雄市登發國小 高雄市仁武區仁和里仁忠路191號","22.679","120.354"
"74DA38F2080C","高雄市市立新庄國小","高雄市新庄國小 高雄市杉林區司馬路45巷5號","22.989","120.56"
"74DA38F20BFA","宜蘭縣縣立東光國中","[265]宜蘭縣羅東鎮興東南路201號","24.671","121.766"
"08BEAC0A0854","臺南市市立新民國小","臺南市新營區公園路一段136號","23.3055469506","120.305803567"
"74DA38F20A04","苗栗縣縣立信義國小","[351]苗栗縣頭份市後庄里信中路36號","24.697","120.891"
"74DA38C7D38A","嘉義市立嘉北國小","[600]嘉義市東區嘉北街65號","23.493","120.454"
"74DA38F2090E","屏東縣縣立東港高中附設國中","[928]屏東縣東港鎮船頭路1號","22.465","120.455"
"74DA38F20E66","苗栗縣縣立後龍國小","[356]苗栗縣後龍鎮大庄里成功路254號","24.614","120.795"
"74DA38C7D490","金門縣立湖埔國小","[892]金門縣金寧鄉湖下196號","24.456","118.308"
"74DA38C7D516","新竹市立虎林國小","[300]新竹市香山區延平路二段78號","24.806","120.941"
"74DA38F210AA","市立社子國小","臺北市士林區永倫里延平北路六段308號","25.089","121.503"
"74DA38F20AF2","高雄市市立民族大愛國小","高雄市民族大愛國小 高雄市杉林區月眉里和氣街15號","22.964","120.539"
"74DA38F20D36","苗栗縣縣立造橋國中","[361]苗栗縣造橋鄉造橋村1鄰老庄27號","24.639","120.863"
"74DA38F20F90","澎湖縣縣立文澳國小","[880]澎湖縣馬公市西文里文學路221號","23.564","119.583"
"74DA38F20F5E","市立康寧國小","臺北市內湖區清白里星雲街121號","25.08","121.594"
"74DA38F20820","宜蘭縣縣立礁溪國中","[262]宜蘭縣礁溪鄉礁溪路四段23號","24.817","121.767"
"74DA38F20D46","新竹縣縣立芎林國小","[307]新竹縣芎林鄉文林村四鄰文山路288號","24.733","121.093"
"08BEAC0A0316","臺南市市立青山國小","臺南市東山區青山里16號","23.2806719","120.4672546"
"74DA38F20932","苗栗縣縣立烏眉國小","[357]苗栗縣通霄鎮烏眉里3鄰39號","24.51","120.72"
"74DA38F21036","新竹縣縣立十興國小","[302]新竹縣竹北市莊敬北路66號","24.823","121.024"
"74DA38C7D606","新竹市立舊社國小","[300]新竹市北區金竹路99號","24.822","120.973"
"74DA38F7C39C","新北市烏來幼兒園","N/A","24.863","121.547"
"74DA38F208CA","宜蘭縣縣立力行國小","[260]宜蘭縣宜蘭市力行路152號","24.763","121.755"
"08BEAC0A04B6","臺南市市立大灣國小","臺南市永康區大灣路283號","23.0055065155","120.267425537"
"74DA38F7C56E","新北市三芝國中","N/A","25.259","121.501"
"74DA38F20A6A","屏東縣縣立西勢國小","[911]屏東縣竹田鄉西勢村光明路8之1號","22.621","120.525"
"74DA38F20854","宜蘭縣四季國小英士分校","[267]宜蘭縣大同鄉梵梵巷100號","24.612","121.525"
"74DA38F20ADA","屏東縣縣立社皮國小","[913]屏東縣萬丹鄉社口村社皮路2段550號","22.614","120.468"
"74DA38F207EE","苗栗縣縣立福基國小","[363]苗栗縣公館鄉福基村275號","24.468","120.832"
"08BEAC09FFBE","臺中市立光復國中小","臺中市霧峰區南柳里柳豐路535號","24.044","120.69"
"74DA38F20B64","苗栗縣縣立鶴岡國中","[363]苗栗縣公館鄉鶴岡村178號","24.528","120.83"
"74DA38F7C39E","新北市新店幼兒園","N/A","24.987","121.521"
"74DA38F2118C","澎湖縣縣立大池國小","[881]澎湖縣西嶼鄉大池村129號","23.614","119.513"
"74DA38F20828","宜蘭縣縣立員山國小","[264]宜蘭縣員山鄉員山村復興路39號","24.743","121.722"
"74DA38F7C31C","新北市安溪國小","N/A","24.93","121.372"
"74DA38F2116E","台東縣縣立卑南國中","[950]臺東縣臺東市更生北路766號","22.789","121.112"
"74DA38F20824","宜蘭縣縣立玉田國小","[262]宜蘭縣礁溪鄉茅埔路24號","24.795","121.79"
"74DA38F20BDA","新竹縣縣立雙溪國小","[308]新竹縣寶山鄉雙園路二段310號","24.765","120.99"
"74DA38F20CAE","台東縣縣立岩灣國小","[950]臺東縣臺東市岩灣路50巷401弄11號","22.806","121.124"
"74DA38F208D0","宜蘭縣縣立成功國小","[265]宜蘭縣羅東鎮興東南路100號","24.671","121.768"
"74DA38F20E8C","苗栗縣縣立卓蘭國小","[369]苗栗縣卓蘭鎮新厝里中山路125號","24.312","120.824"
"74DA38F7C5E2","新北市貢寮國小","N/A","25.021","121.915"
"74DA38F7C444","新北市烏來國中","N/A","24.863","121.553"
"74DA38F2111A","新竹縣備品","新竹縣","24.827","121.032"
"74DA38F211BA","屏東縣縣立舊寮國小","[906]屏東縣高樹鄉舊寮村長美路42號","22.848","120.61"
"08BEAC0A03E0","桃園市市立三和國小","桃園市龍潭區龍新路三和段1356號","24.8481239687","121.16799362"
"74DA38F7C48A","新北市忠孝國中","N/A","25.004","121.461"
"74DA38F208BA","宜蘭縣縣立三星國小","[266]宜蘭縣三星鄉三星路五段86號","24.666","121.65"
"74DA38F20B66","苗栗縣縣立建國國小","[351]苗栗縣頭份市建國路80號","24.695","120.912"
"74DA38F208E0","宜蘭縣縣立南安國小","[270]宜蘭縣蘇澳鎮南建里學府路122號","24.579","121.868"
"74DA38F207EC","苗栗縣縣立大同國小","[360]苗栗縣苗栗市高苗里大同路80號","24.552","120.814"
"74DA38F2082E","宜蘭縣縣立大里國小","[261]宜蘭縣頭城鎮濱海路七段65號","24.935","121.887"
"74DA38F7C490","新北市江翠國中","N/A","25.028","121.468"
"74DA38F20FDC","屏東縣縣立鹽洲國小","[932]屏東縣新園鄉鹽埔村鹽洲路379號","22.488","120.44"
"74DA38F208F4","苗栗縣縣立鯉魚國小","[367]苗栗縣三義鄉鯉魚潭村上山下24號","24.343","120.767"
"74DA38F20848","宜蘭縣縣立七賢國小","[264]宜蘭縣員山鄉浮洲路30號","24.719","121.743"
"74DA38F2084E","宜蘭縣縣立同樂國小","[264]宜蘭縣員山鄉同樂村新城路84之4號","24.763","121.728"
"74DA38F7C61A","市立光復國小","臺北市信義區光復南路271號","25.041","121.565"
"08BEAC0A0236","臺中市立豐村國小","42084臺中市豐原區水源路341號","24.25523866","120.7364315"
"74DA38F20852","苗栗縣縣立中正國小","[358]苗栗縣苑裡鎮中正里111號","24.428","120.661"
"74DA38F20BE2","高雄市市立溪埔國中","高雄市立溪埔國民中學 高雄市大樹區溪埔里溪埔路1號","22.719","120.443"
"74DA38F20DE4","高雄市市立前鎮國小","高雄市前鎮國小 高雄市前鎮區新生路200號","22.586","120.308"
"08BEAC0A046A","臺南市市立佳里國小","臺南市佳里區安西里公園路445號","23.16435098","120.1718527"
"74DA38F2087E","宜蘭縣大同國小松羅分校","[267]宜蘭縣大同鄉松羅南巷88號","24.656","121.578"
"74DA38F2099C","屏東縣縣立新興國小","[913]屏東縣萬丹鄉灣內村聖賢路241號","22.57","120.458"
"74DA38F20898","苗栗縣縣立啟文國小","[360]苗栗縣苗栗市福星里啟賢街61號","24.573","120.827"
"08BEAC0A01A6","臺中市立協成國小","臺中市新社區協成里興義街219號","24.19350258","120.8124575"
"08BEAC09FFFA","臺南市市立五王國小","臺南市永康區中華二路150號","23.0085611","120.2367644"
"74DA38F20CC8","屏東縣縣立忠孝國小","[900]屏東縣屏東市建豐路204號","25.062","121.451"
"74DA38F20C9E","新竹縣縣立五龍國小","[307]新竹縣芎林鄉五龍村105號","24.737","121.123"
"74DA38F209F8","台東縣縣立忠孝國小","[961]臺東縣成功鎮忠孝里成廣路8號","23.157","121.4"
"08BEAC0A0340","臺中市立上石國小","臺中市西屯區西屯路二段上石南六巷25號","24.173657","120.643326"
"74DA38F20BBC","高雄市市立竹圍國小","高雄市竹圍國小 高雄市岡山區竹圍里大仁北路1號","22.803","120.302"
"74DA38F20930","台東縣縣立新港國中","[961]臺東縣成功鎮中正路1號","23.101","121.376"
"74DA38F20FA0","澎湖縣縣立鳥嶼國小","[884]澎湖縣白沙鄉鳥嶼村57號","23.662","119.659"
"74DA38F210DC","屏東縣縣立長榮百合國小","[903]屏東縣瑪家鄉瑪家村和平路一段65號","22.698","120.643"
"74DA38F20DB4","苗栗縣縣立三義高中附設國中","[367]苗栗縣三義鄉廣盛村11鄰122號","24.41","120.765"
"08BEAC0A00B6","臺南市市立大橋國小","臺南市永康區大橋三街173號","23.02018065","120.2269801"
"08BEAC0A04DA","臺中市立育英國小","臺中市后里區太平里四月路23號","24.31132013","120.6795152"
"74DA38F20FAA","高雄市市立河濱國小","高雄市河濱國小 高雄市三民區市中一路339號","22.634","120.287"
"74DA38F20C6E","苗栗縣縣立三灣國小","[352]苗栗縣三灣鄉三灣村中山路49號","25.062","121.451"
"08BEAC245B1A","EPA備品(2020)",,"25.051","121.544"
"74DA38ED04B8","花蓮縣立豐裡國小","[974]花蓮縣壽豐鄉豐裡村中山路299號","23.841","121.507"
"74DA38F20A0A","高雄市市立加昌國小","高雄市加昌國小 高雄市楠梓區樂群路220號","22.72","120.296"
"74DA38F20BE6","新竹縣縣立碧潭國小","[307]新竹縣芎林鄉石潭村福昌街90號","24.746","121.103"
"74DA38F20954","新竹縣縣立照門國中","[305]新竹縣新埔鎮照門里照鏡7號","24.849","121.112"
"74DA38F20BEA","新竹縣縣立中興國小","[303]新竹縣湖口鄉勝利村吉祥街43號","24.866","121.028"
"74DA38F7C496","新北市大觀國中","N/A","25.01","121.448"
"74DA38F20E86","苗栗縣縣立泰興國小",,"24.394","120.92"
"74DA38F20E72","苗栗縣縣立東興國小","[364]苗栗縣大湖鄉東興村下湖37號","24.38","120.882"
"74DA38B053D8","嘉義國立嘉義高級工業職業學校","[600]嘉義市彌陀路174號","23.471","120.464"
"74DA38F2095E","新竹縣縣立竹北國中","[302]新竹縣竹北市中正西路154號","24.841","121.001"
"74DA38F208F6","連江縣縣立介壽國(中)小","[209]連江縣南竿鄉介壽村13號","26.16","119.949"
"08BEAC0A0474","桃園市市立大有國中",,"25.0097261","121.3199264"
"08BEAC0A06AE","臺南市市立五甲國小","臺南市關廟區和平路246號","22.959","120.334"
"74DA38F20A70","屏東縣縣立育英國小","[912]屏東縣內埔鄉興南村育文路73號","22.62","120.581"
"74DA38F20D86","高雄市市立援中國小","高雄市援中國小 高雄市楠梓區大學26街1150號","22.728","120.277"
"74DA38F20C86","高雄市市立水寮國小","高雄市水寮國小 高雄市大樹區水寮里中華路國小巷1號","22.667","120.407"
"74DA38F20846","宜蘭縣縣立凱旋國小","[260]宜蘭縣宜蘭市凱旋路130號","24.724","121.764"
"74DA38F20894","宜蘭縣縣立五結國小","[268]宜蘭縣五結鄉國民路1號","24.687","121.799"
"74DA38F7C36E","市立龍安國小","臺北市大安區龍門里新生南路3段33號","25.03","121.533"
"74DA38F20E58","宜蘭縣縣立南山國小","[267]宜蘭縣大同鄉南山村四鄰埤南巷31之3號","24.437","121.38"
"74DA38F20866","台東縣縣立椰油國小","[952]臺東縣蘭嶼鄉椰油村忠孝街1號","22.045","121.517"
"74DA38F20922","連江縣縣立東引國(中)小","[212]連江縣東引鄉中柳村94號","26.368","120.488"
"08BEAC0A022E","臺中市立海墘國小","臺中市大安區海墘里大安港路1100號","24.3793534953","120.588386022"
"08BEAC252CB8","EPA備品(2020)",,"25.043","121.512"
"74DA38F20982","基隆市立成功國小","[200]基隆市仁愛區獅球路6號","25.125","121.738"
"74DA38F20D7E","基隆市立七堵國小","[206]基隆市七堵區明德一路184號","25.098","121.714"
"74DA38F21148","高雄市市立立德國中","高雄市立立德國民中學 高雄市左營區明建里實踐路101號","22.689","120.291"
"74DA38F20916","屏東縣縣立大同高中附設國中","[900]屏東縣屏東市和平路429號","22.677","120.477"
"74DA38F20AEE","高雄市市立中崙國中","高雄市立中崙國民中學 高雄市鳳山區中榮里中崙二路487號","22.488","120.489"
"74DA38F20E34","高雄市市立興仁國中","高雄市立興仁國民中學 高雄市前鎮區興仁里德昌路345號","22.586","120.313"
"74DA38F20EA2","新竹縣縣立尖石國小","[313]新竹縣尖石鄉嘉樂村六鄰7號","24.728","121.226"
"08BEAC0A0708","臺南市南科實中","台南市新市區三舍里大順六路12巷6號","23.10706685","120.2909742"
"74DA38F2101A","新竹縣備品","[304]新竹縣新豐鄉松林街99號","24.869","120.991"
"74DA38F20E0C","新竹縣縣立清水國小","[305]新竹縣新埔鎮清水里143號","24.867","121.135"
"74DA38F2118E","連江縣縣立仁愛國小","[209]連江縣南竿鄉仁愛村95號","26.148","119.935"
"74DA38F20F42","屏東縣縣立東隆國小","[928]屏東縣東港鎮共和里共和路45號","22.464","120.45"
"08BEAC0A078C","臺南市市立崇明國小","臺南市東區崇明路698號","22.97097445","120.2256058"
"74DA38F209D8","新竹縣縣立員崠國小","[310]新竹縣竹東鎮東峰路281號","24.714","121.07"
"74DA38F20836","宜蘭縣縣立湖山國小","[264]宜蘭縣員山鄉枕山村坡城路54號","24.779","121.699"
"74DA38F210D8","高雄市市立茄萣國中","高雄市立茄萣國民中學 高雄市茄萣區濱海路4段29號","22.906","120.181"
"74DA38F20C80","苗栗縣縣立后庄國小","[351]苗栗縣頭份市文化里文化街20號","24.696","120.899"
"74DA38F20E70","苗栗縣縣立新開國小","[364]苗栗縣大湖鄉新開村25號","24.348","120.827"
"74DA38F2083A","宜蘭縣縣立三民國小","[262]宜蘭縣礁溪鄉三民村十六結路100號","24.813","121.759"
"74DA38F20844","宜蘭縣縣立光復國小","[260]宜蘭縣宜蘭市泰山路60號","24.754","121.746"
"74DA38F20E98","新竹縣縣立峨眉國小","[315]新竹縣峨眉鄉峨眉街4號","24.688","121.02"
"74DA38F2086A","苗栗縣縣立中山國小","[358]苗栗縣苑裡鎮社苓里四鄰51之1號","24.398","120.675"
"74DA38F20C8C","新竹縣縣立瑞興國小","[304]新竹縣新豐鄉瑞興村63號","24.911","121.009"
"74DA38F20F02","宜蘭縣縣立澳花國小","[272]宜蘭縣南澳鄉澳花村中央路19號","24.329","121.739"
"74DA38F20C0C","新竹縣縣立沙坑國小","[312]新竹縣橫山鄉沙坑村三鄰沙坑街48號","24.739","121.161"
"74DA38F20882","宜蘭縣大同國小樂水分校","[267]宜蘭縣大同鄉樂水村碼崙巷53號","24.6","121.529"
"74DA38F20EE2","宜蘭縣縣立中華國中","[260]宜蘭縣宜蘭市女中路一段100號","24.749","121.767"
"74DA38F20830","宜蘭縣縣立礁溪國小","[262]宜蘭縣礁溪鄉大忠村礁溪路四段135號","24.821","121.768"
"74DA38F20C9C","新竹縣縣立寶山國小","[308]新竹縣寶山鄉寶山村寶山路二段130號","24.739","121.021"
"74DA38F210D2","新竹縣縣立照東國小","[305]新竹縣新埔鎮鹿鳴里9鄰36號","24.845","121.141"
"74DA38F210D6","屏東縣縣立九如國中","[904]屏東縣九如鄉玉水路26號","22.717","120.486"
"74DA38F20888","宜蘭縣縣立冬山國小","[269]宜蘭縣冬山鄉安平村安中路35號","24.632","121.789"
"74DA38F20A7E","台東縣縣立永安國小","[955]臺東縣鹿野鄉永安村鹿寮路31號","22.933","121.128"
"74DA38F20838","宜蘭縣縣立大湖國小","[264]宜蘭縣員山鄉湖東村蜊埤路55號","24.747","121.69"
"74DA38F20890","宜蘭縣縣立順安國小","[269]宜蘭縣冬山鄉順安村永興路二段17號","24.654","121.762"
"74DA38F20BAA","苗栗縣縣立苗栗國中","[360]苗栗縣苗栗市高苗里木鐸山1號","25.062","121.451"
"74DA38F208B8","宜蘭縣縣立武淵國小","[269]宜蘭縣冬山鄉武淵村富農路二段350號","24.661","121.798"
"08BEAC0A02FE","臺南市市立民德國中","臺南市北區西門路三段223號","23.25286122","120.3749375"
"74DA38F20EBE","宜蘭縣縣立清溝國小","[269]宜蘭縣冬山鄉清溝村永清路369號","24.663","121.763"
"74DA38F20F50","屏東縣縣立港西國小","[932]屏東縣新園鄉港西村中和路101號","22.508","120.455"
"74DA38F2087C","宜蘭縣縣立南安國中","[270]宜蘭縣蘇澳鎮學府路117號","24.574","121.868"
"74DA38F20892","宜蘭縣縣立學進國小","[268]宜蘭縣五結鄉中正路三段151號","24.707","121.77"
"74DA38F20966","基隆市立南榮國小","[200]基隆市仁愛區南榮路321號","25.119","121.744"
"74DA38F2101C","新竹縣縣立忠孝國中","[304]新竹縣新豐鄉員山村孝六街1號","24.878","120.999"
"74DA38F2089E","苗栗縣縣立五穀國小","[363]苗栗縣公館鄉五穀村260號","24.521","120.822"
"74DA38F7C45C","新北市竹圍國小","N/A","25.147","121.46"
"74DA38F20D9E","苗栗縣縣立興華高中附設國中","[351]苗栗縣頭份市中正一路401號","24.685","120.936"
"74DA38F208A2","宜蘭縣縣立廣興國小","[269]宜蘭縣冬山鄉廣興村梅花路303號","24.664","121.743"
"08BEAC0A038A","臺中市立中華國小","臺中市北區漢口路三段2號","25.06248166","121.582288"
"08BEAC0A0186","嘉義縣縣立鹿滿國小","嘉義縣竹崎鄉鹿滿村鹿鳴路2號","23.49902584","120.5342155"
"74DA38F20CBE","台東縣縣立康樂國小","[950]臺東縣臺東市山西路一段256號","22.755","121.119"
"74DA38F208A4","宜蘭縣縣立大洲國小","[266]宜蘭縣三星鄉大洲村上將路二段500號","24.693","121.727"
"74DA38F208A6","苗栗縣縣立明德國小","[362]苗栗縣頭屋鄉明德村明德路4巷13號","24.585","120.885"
"08BEAC0A0304","臺南市市立大竹國小","臺南市白河區大竹里3號","23.3523033","120.4130168"
"74DA38F208A8","苗栗縣縣立頭屋國小","[362]苗栗縣頭屋鄉頭屋村中山街15號","24.576","120.851"
"08BEAC0A00E8","臺南市市立竹門國小","臺南市白河區竹門里113號","23.3769203292","120.445014909"
"74DA38F208B4","宜蘭縣縣立柯林國小","[269]宜蘭縣冬山鄉柯林村光華路158號","24.676","121.731"
"74DA38ED05FC","花蓮縣立大進國小","[976]花蓮縣光復鄉大進村糖廠街4號","23.654","121.419"
"74DA38F208AE","台東縣縣立興隆國小","[959]臺東縣東河鄉興昌村155號","22.895","121.248"
"74DA38F20834","宜蘭縣縣立梗枋國小","[261]宜蘭縣頭城鎮更新里59號","24.9","121.862"
"74DA38F21198","新竹縣縣立安興國小","[302]新竹縣竹北市十興路一段435號","24.827","121.031"
"74DA38F7C646","市立大直國小","臺北市中山區大直里大直街2號","25.051","121.538"
"74DA38F20920","苗栗縣縣立坪頂國小","[357]苗栗縣通霄鎮坪頂里四鄰50號","24.446","120.705"
"74DA38F210AC","市立雨聲國小","臺北市士林區岩山里至誠路1段62巷70號","25.103","121.534"
"74DA38F20ED6","屏東縣縣立琉球國中","[929]屏東縣琉球鄉中正路158號","22.335","120.369"
"08BEAC0A03B8","臺南市市立善化區大同國小","臺南市善化區六德里200之1號","23.12853446","120.2948985"
"74DA38F208C0","宜蘭縣縣立黎明國小","[260]宜蘭縣宜蘭市校舍路1號","24.752","121.764"
"74DA38F20976","基隆市立尚智國小","[200]基隆市仁愛區龍安街326號","25.12","121.742"
"74DA38F20980","屏東縣縣立黎明國小","[912]屏東縣內埔鄉黎明村西淇路177號","22.687","120.596"
"74DA38F2098A","屏東縣縣立僑智國小","[912]屏東縣內埔鄉美和村學人路55號","22.625","120.553"
"74DA38F209A8","屏東縣縣立東海國小","[940]屏東縣枋寮鄉東海村東海路486號","22.401","120.577"
"74DA38F20AFC","高雄市市立鳳甲國中","高雄市立鳳甲國民中學 高雄市新強里鳳山區輜汽路300號","22.616","120.342"
"08BEAC0A0678","臺南市市立七股國小","臺南市七股區大埕里395號","23.139","120.138"
"74DA38F20E08","新竹縣縣立東光國小","[306]新竹縣關西鎮東光里190號","24.777","121.175"
"08BEAC0A0806","嘉義縣縣立灣內國小","嘉義縣六腳鄉灣南村6號","23.50063197","120.3121882"
"08BEAC0A053C","嘉義縣縣立水上國小","嘉義縣水上鄉水上村正義路182號","23.42779179","120.3970029"
"08BEAC252AF4","EPA備品(2020)",,"24.954","121.205"
"74DA38F7C618","市立仁愛國小","臺北市大安區敦安里安和路1段60號","25.076","121.496"
"74DA38F20E84","苗栗縣縣立坪林國小","[369]苗栗縣卓蘭鎮坪林里七鄰坪林86之2號","24.335","120.876"
"74DA38F21020","新竹縣縣立東興國中","[302]新竹縣竹北市嘉豐六路一段101號","24.81","121.029"
"08BEAC0A04A8","嘉義縣縣立內甕國小","嘉義縣番路鄉內甕村3鄰1之1號","23.45856963","120.5235268"
"74DA38F20BA4","高雄市市立新興高中","高雄市立新興高級中學 高雄市新興區玉衡里五福二路218號","22.657","120.315"
"74DA38F20A4C","台東縣縣立大王國小","[963]臺東縣太麻里鄉大王村文化路60號","22.613","121.003"
"74DA38F20C34","市立東湖國小","臺北市內湖區東湖里東湖路115號","25.069","121.615"
"74DA38F209FC","苗栗縣縣立蕉埔國小","[358]苗栗縣苑裡鎮蕉埔里八鄰87之2號","24.413","120.713"
"74DA38F209FE","苗栗縣備品","[354]苗栗縣獅潭鄉新店村129號","24.539","120.92"
"74DA38F20A08","高雄市市立旗山國小","高雄市旗山國小 高雄市旗山區華中街44號","22.888","120.481"
"74DA38F207F8","苗栗縣縣立中興國小","[366]苗栗縣銅鑼鄉中平村150號","24.498","120.809"
"74DA38F20CD0","屏東縣私立崇華國小","[908]屏東縣長治鄉復興村新興路38號","22.726","120.542"
"74DA38F7C4E4","新北市鷺江國小","N/A","25.085","121.475"
"74DA38C7D172","金門縣立安瀾國小","[890]金門縣金沙鎮碧山村81號","24.482","118.437"
"74DA38F20A48","新竹縣縣立新星國小","[305]新竹縣新埔鎮新民里民生街28號","24.829","121.074"
"74DA38F20C36","苗栗縣縣立西湖國中","[368]苗栗縣西湖鄉龍洞村一鄰1之1號","24.555","120.757"
"08BEAC0A0598","臺南市市立宅港國小","臺南市學甲區宅港里13號","23.2579709","120.2035746"
"74DA38F209EC","台東縣縣立成功國小","[961]臺東縣成功鎮太平路28號","23.102","121.382"
"08BEAC09FF20","臺中市立外埔國小","臺中市外埔區外埔路878號","24.33261333","120.65355"
"74DA38F20870","台東縣縣立東清國小","[952]臺東縣蘭嶼鄉東清村1號","22.056","121.564"
"74DA38F20A20","高雄市市立三侯國小","高雄市三侯國小 高雄市湖內區中正路二段544號","22.911","120.198"
"74DA38F20FD6","高雄市市立愛國國小","高雄市愛國國小 高雄市三民區十全一路1號","22.643","120.313"
"74DA38F20D6A","高雄市市立七賢國中","高雄市立七賢國民中學 高雄市鼓山區龍水里美術東三路110號","22.658","120.289"
"74DA38F20F12","高雄市市立內惟國小","高雄市內惟國小 高雄市鼓山區內惟路73號","22.656","120.276"
"74DA38F20A2A","高雄市市立鹽埕國中","高雄市立鹽埕國民中學 高雄市鹽埕區育仁里新樂街46號","22.623","120.288"
"74DA38F20A36","苗栗縣縣立蓬萊國小","[353]苗栗縣南庄鄉蓬萊村19鄰118號","24.543","120.97"
"74DA38F20A38","苗栗縣縣立東河國小","[353]苗栗縣南庄鄉東河村三鄰132號","24.6","121.04"
"74DA38F2114A","市立文林國小","臺北市北投區建民里文林北路155號","25.061","121.51"
"08BEAC0A02EE","臺南市市立新化國中","臺南市新化區中興路722號","23.03428054","120.3120474"
"74DA38F20DBE","澎湖縣縣立龍門國小","[885]澎湖縣湖西鄉尖山村4號","23.566","119.669"
"08BEAC09FF4A","臺中市立雙十國中","臺中市北區力行路258號","25.06146963","121.6468672"
"74DA38F20CB2","台東縣縣立卑南國小","[950]臺東縣臺東市卑南里更生北路317號","22.782","121.119"
"08BEAC0A001E","臺中市立新盛國小","臺中市東勢區新盛里新盛街342號","24.243535","120.831636"
"74DA38F20AC0","台東縣縣立公館國小","[951]臺東縣綠島鄉公館村98號","22.674","121.493"
"74DA38F21196","宜蘭縣縣立興中國中","[268]宜蘭縣五結鄉上四村中正東路50號","24.699","121.77"
"74DA38F20886","宜蘭縣縣立文化國中","[270]宜蘭縣蘇澳鎮永榮里新馬路2號","24.618","121.833"
"74DA38EBF8A8","花蓮縣立富里國中","[983]花蓮縣富里鄉永安路173號","23.175","121.249"
"74DA38F7C502","市立螢橋國中","臺北市中正區林興里汀州路三段4號","25.018","121.525"
"74DA38F209B4","台東縣縣立大溪國小","[963]臺東縣太麻里鄉多良村十五鄰大溪85號","22.462","120.941"
"74DA38F20816","宜蘭縣縣立中興國小","[268]宜蘭縣五結鄉四結村中興路三段67號","24.692","121.772"
"08BEAC0A0862","臺南市市立仁光國小","臺南市鹽水區三明里舊營117號","23.29974037","120.2574054"
"74DA38F7C57A","新北市丹鳳國小","N/A","25.023","121.413"
"08BEAC252C9E","宜蘭縣縣立東澳國小(2020)",,"24.522","121.833"
"08BEAC0A0570","臺南市市立關廟國小","臺南市關廟區山西里文衡路121號","22.96408732","120.3255733"
"74DA38F20A5A","屏東縣縣立新南國小","[906]屏東縣高樹鄉新南村興店路5號","22.785","120.559"
"74DA38F20A60","台東縣縣立賓朗國小","[954]臺東縣卑南鄉賓朗村474巷2號","22.807","121.093"
"74DA38F20ADE","新竹縣縣立照門國小","[305]新竹縣新埔鎮照照門里九鄰39號","24.847","121.117"
"08BEAC0A05E2","臺南市市立玉山國小","臺南市南化區玉山里48之1號","23.07473241","120.5190658"
"74DA38F20D22","市立龍門國中","臺北市大安區建國南路二段269號","25.024","121.537"
"74DA38E2B612","嘉義縣備品","嘉義縣","23.425","120.395"
"74DA38F20946","新竹縣縣立寶山國中","[308]新竹縣寶山鄉三峰路二段600號","24.764","120.992"
"74DA38F20D52","新竹縣縣立新社國小",,"24.844","120.998"
"74DA38F2088C","宜蘭縣縣立東興國小",,"24.629","121.806"
"08BEAC09FF36","雲林縣縣立廉使國小","雲林縣虎尾鎮廉使里卅二號","23.71716907","120.4206033"
"74DA38F2088A","宜蘭縣縣立孝威國小","[268]宜蘭縣五結鄉孝威路328號","24.753","121.741"
"08BEAC0A04B8","雲林縣縣立安南國小","雲林縣東勢鄉安南村安南路一○九號","23.705","120.249"
"74DA38F20DF6","新竹縣縣立枋寮國小","[305]新竹縣新埔鎮上寮里義民路二段350號","24.837","121.051"
"74DA38F2097A","高雄市市立南成國小","高雄市南成國小 高雄市鳳山區南和街101號","22.594","120.336"
"74DA38F20AD0","基隆市立華興國小","[206]基隆市七堵區泰安路34號","25.087","121.707"
"08BEAC0A00A4","臺中市立谷關分校","臺中市和平區博愛里分校巷29號","24.20197106","121.0061587"
"74DA38F20FFA","高雄市市立海埔國小","高雄市海埔國小 高雄市湖內區海埔里忠孝街256號","22.895","120.225"
"74DA38F7C258","新北市五股國中","N/A","25.083","121.434"
"74DA38F20822","宜蘭縣縣立竹安國小","[261]宜蘭縣頭城鎮竹安里頭濱路一段601號","24.825","121.82"
"74DA38C7D614","新竹市立建華國中","[300]新竹市東區學府路2號","24.792","120.976"
"74DA38F20DA2","屏東縣縣立大新國小","[931]屏東縣佳冬鄉大同村武丁路33號","22.45","120.54"
"74DA38F20E78","苗栗縣縣立景山國小","[369]苗栗縣卓蘭鎮景山里5鄰88號","24.352","120.865"
"74DA38F209A4","屏東縣縣立繁華國小","[908]屏東縣長治鄉繁華村水源路96號","22.702","120.572"
"74DA38F20C88","苗栗縣縣立信德國小","[351]苗栗縣頭份市流東里信德路58號","24.686","120.96"
"74DA38F20C90","苗栗縣縣立照南國小","[350]苗栗縣竹南鎮佳興里光復路331號","24.693","120.878"
"74DA38F20C94","苗栗縣縣立海口國小","[350]苗栗縣竹南鎮海口里7鄰保福路20號","24.675","120.861"
"74DA38F20B98","苗栗縣縣立明仁國中","[360]苗栗縣苗栗市福麗里電台10號","24.559","120.812"
"74DA38F7C2FA","新北市深坑國中","N/A","25.001","121.618"
"74DA38F20EB8","新竹縣縣立松林國小",,"24.872","120.991"
"74DA38F20B2E","基隆市立過港幼兒園","基隆市","25.105","121.738"
"74DA38F20EB0","新竹縣縣立嘉興國小","[313]新竹縣尖石鄉嘉樂村三鄰177號","24.705","121.21"
"74DA38F20AE0","屏東縣縣立興華國小","[913]屏東縣萬丹鄉崙頂村崙頂路860號","22.593","120.461"
"08BEAC0A05C4","嘉義縣縣立竹園國小","嘉義縣鹿草鄉松竹村69號","23.39362518","120.2907198"
"74DA38F20B04","屏東縣縣立高士國小","[945]屏東縣牡丹鄉高士村高士路29號","22.124","120.846"
"74DA38F20D84","澎湖縣縣立中興國小","[880]澎湖縣馬公市光復路186號","23.574","119.574"
"74DA38F20972","基隆市立中正國小",,"25.136","121.75"
"74DA38F210F4","台東縣國立臺東大學附小","[950]臺東縣臺東市博愛路345號","22.792","121.126"
"74DA38F20CB0","台東縣縣立太平國小","[954]臺東縣卑南鄉泰安村6號","22.79","121.075"
"74DA38F20FF0","高雄市市立福東國小","高雄市福東國小 高雄市苓雅區福德三路96號","22.624","120.327"
"74DA38F20C7A","苗栗縣縣立僑文國小","[368]苗栗縣西湖鄉二湖村二鄰22號","24.562","120.748"
"74DA38F2106A","澎湖縣縣立池東國小","[881]澎湖縣西嶼鄉池東村104號","23.601","119.506"
"74DA38F208C8","宜蘭縣縣立宜蘭國小","[260]宜蘭縣宜蘭市崇聖街2號","24.753","121.755"
"74DA38F20AA8","苗栗縣縣立海寶國小","[356]苗栗縣後龍鎮海寶里五鄰52之2號","24.661","120.821"
"74DA38F20B62","苗栗縣縣立象鼻國小","[365]苗栗縣泰安鄉象鼻村一鄰4號","24.359","120.947"
"74DA38F20B92","苗栗縣縣立公館國中","[363]苗栗縣公館鄉館中村大同路3號","24.498","120.826"
"08BEAC0A081C","嘉義縣縣立中山國小","嘉義縣中埔鄉石弄村22號","23.41208802","120.5483229"
"74DA38F20F8C","高雄市市立福山國小","高雄市福山國小 高雄市左營區重愛路99號","22.683","120.317"
"74DA38F20CFE","屏東縣縣立南州國小","[926]屏東縣南州鄉溪南村人和路191號","22.488","120.507"
"74DA38F20F7A","澎湖縣縣立望安國小","[882]澎湖縣望安鄉西安村46號","23.36","119.496"
"08BEAC0A0054","臺中市立博愛國小","臺中市和平區博愛里松鶴三巷10號","24.17712534","120.9796597"
"74DA38F210C2","屏東縣縣立賽嘉國小","[901]屏東縣三地門鄉賽嘉村2號","22.743","120.64"
"74DA38F20ED0","屏東縣縣立恆春國中","[946]屏東縣恆春鎮文化路79號","22.002","120.747"
"74DA38F21138","台東縣縣立大王國中","[963]臺東縣太麻里鄉大王村633號","22.771","121.111"
"08BEAC2528BA","宜蘭縣縣立金岳國小(2020)",,"24.471","121.777"
"74DA38F7C396","市立五常國小","臺北市中山區下埤里五常街16號","25.063","121.541"
"74DA38F7C4F0","新北市集美國小","N/A","25.056","121.488"
"74DA38F20B8C","苗栗縣縣立士林國小","[365]苗栗縣泰安鄉士林村5鄰26號","24.347","120.93"
"74DA38F7C4F4","市立實踐國中","臺北市文山區樟林里辛亥路七段67號","24.983","121.555"
"74DA38F209A2","屏東縣縣立新庄國小","[913]屏東縣萬丹鄉新庄村新鐘路410號","22.562","120.48"
"74DA38F7C604","新北市中和高中","N/A","24.994","121.478"
"74DA38F7C412","新北市福隆國小",,"25.017","121.948"
"74DA38F20BC0","高雄市市立維新國小","高雄市維新國小 高雄市永安區維新路光明九巷69-10號","22.802","120.247"
"74DA38F21006","高雄市市立龍山國小","高雄市龍山國小 高雄市美濃區龍山街62號","22.864","120.556"
"74DA38F7C13A","新北市新林國小",,"25.07","121.359"
"08BEAC0A05DC","桃園市市立笨港國小","桃園市新屋區笨港里2鄰文學路22號","24.97445325","121.0263341"
"74DA38ED060C","花蓮縣立嘉里國小","[971]花蓮縣新城鄉嘉里村嘉里三街28號","24.014","121.609"
"74DA38F21078","市立士東國小","臺北市士林區蘭雅里中山北路6段392號","25.113","121.527"
"74DA38F20BCC","高雄市市立烏林國小","高雄市烏林國小 高雄市仁武區烏林里林森巷23號","22.698","120.373"
"74DA38F207E6","苗栗縣縣立僑育國小","[360]苗栗縣苗栗市僑育街131號","24.552","120.822"
"08BEAC252908","嘉義市市立北園國中(2020)",,"23.495","120.427"
"74DA38F20D40","苗栗縣縣立頭份國中",,"24.691","120.901"
"74DA38F2113C","台東縣縣立池上國中","[958]臺東縣池上鄉新興村力學路88號","23.115","121.204"
"08BEAC0A0522","雲林縣縣立褒忠國中","雲林縣褒忠鄉中勝路六二號","23.69969844","120.3110861"
"08BEAC0A02D6","嘉義縣縣立網寮國小","嘉義縣東石鄉網寮村27號","23.431384","120.156914"
"08BEAC252B08","EPA備品(2020)",,"25.043","121.512"
"74DA38F2102A","新竹縣備品","新竹縣","24.733","121.093"
"74DA38F20A3C","苗栗縣縣立田美國小","[353]苗栗縣南庄鄉田美村九鄰191號","24.629","121.008"
"74DA38F2082C","宜蘭縣縣立龍潭國小","[262]宜蘭縣礁溪鄉龍潭村育龍路71號","24.779","121.744"
"74DA38F20BEC","新竹縣縣立竹中國小","[310]新竹縣竹東鎮頭重里竹中路104巷14號","24.78","121.029"
"74DA38F20BF8","新竹縣縣立內灣國小","[312]新竹縣橫山鄉內灣村三鄰110號","24.704","121.183"
"74DA38F2115A","高雄市市立永安國中","高雄市立永安國民中學 高雄市永安區保寧里保興一路3號","22.823","120.24"
"74DA38F209D4","新竹縣縣立二重國小","[310]新竹縣竹東鎮二重里光明路32號","24.767","121.057"
"74DA38F2081C","宜蘭縣縣立四結國小","[262]宜蘭縣礁溪鄉吳沙村育英路46號","24.787","121.759"
"08BEAC0A006E","臺中市立霧峰農工","臺中市霧峰區中正路1222號","24.07386045","120.7018616"
"08BEAC0A040A","臺南市市立歸南國小","臺南市歸仁區辜厝里民權南路171號","22.96428768","120.2881642"
"74DA38F20F84","澎湖縣縣立花嶼國小","[882]澎湖縣望安鄉花嶼村2號","23.4","119.322"
"74DA38F7C474","新北市南勢國小","N/A","25.075","121.358"
"74DA38F2096A","基隆市立安樂國小","[204]基隆市安樂區安一路177巷23號","25.131","121.731"
"08BEAC0A05D8","嘉義縣縣立興中國小","嘉義縣民雄鄉興中村30號","23.527","120.42"
"74DA38F209E4","屏東縣縣立同安國小","[926]屏東縣南州鄉同安村同安路79號","22.472","120.521"
"74DA38F20E32","高雄市市立瑞豐國中","高雄市立瑞豐國民中學 高雄市前鎮區瑞文里瑞興街99號","22.611","120.331"
"74DA38F20C18","高雄市市立鳳林國中","高雄市立鳳林國民中學 高雄市小港區鳳興里龍鳳路559號","22.521","120.348"
"74DA38F20F30","高雄市市立五權國小","高雄市五權國小 高雄市苓雅區三多二路100號","22.62","120.323"
"08BEAC0A05E0","臺南市市立善化國中","臺南市善化區溪美里656號","23.14732595","120.2873474"
"74DA38F20F52","屏東縣縣立以栗國小",,"22.462","120.461"
"08BEAC0A00E2","臺中市立龍峰國小",,"24.1809582733","120.575994551"
"74DA38F20C56","高雄市市立嘉誠國小","高雄市嘉誠國小 高雄市大社區嘉誠路22號","22.748","120.38"
"74DA38F20C52","新竹縣縣立瑞峰國小","[310]新竹縣竹東鎮上坪里43號","24.661","121.121"
"08BEAC09FF96","臺中市立萬豐國小",,"24.05738415","120.6983048"
"74DA38F209AE","屏東縣縣立鶴聲國小","[900]屏東縣屏東市崇武里建國路121號","22.664","120.479"
"74DA38F209C0","屏東縣縣立歸來國小","[900]屏東縣屏東市湖西里歸國巷1號","22.659","120.509"
"74DA38C7D642","新竹市立民富國小","[300]新竹市北區西大路561號","24.808","120.96"
"74DA38F2111E","澎湖縣縣立西嶼國中","[881]澎湖縣西嶼鄉池東村213號","23.6","119.51"
"74DA38F208D6","宜蘭縣縣立蓬萊國小","[270]宜蘭縣蘇澳鎮南澳路85號","24.464","121.803"
"74DA38F20D6E","基隆市立德和國小","[203]基隆市中山區文化路164號","25.155","121.73"
"74DA38F211DC","屏東縣縣立土庫國小-信國分校","[905]屏東縣里港鄉土庫村信國74號","22.736","120.499"
"74DA38F20B40","高雄市市立福誠高中","高雄市立福誠高級中學 鳳山區福祥里五甲三路176號","22.59","120.323"
"74DA38F20806","高雄市市立竹後國小","高雄市竹後國小 高雄市仁武區竹後里竹楠路250號","22.709","120.334"
"74DA38F21166","台東縣縣立知本國中","[950]臺東縣臺東市青海路三段680號","22.717","121.046"
"74DA38F7C504","市立誠正國中","臺北市南港區新富里富康街1巷24號","25.054","121.618"
"74DA38F20FBE","高雄市市立西門國小","高雄市西門國小 高雄市內門區內東里柿子園24號","22.643","120.32"
"74DA38F20BAC","高雄市市立瑞興國小","高雄市瑞興國小 高雄市鳳山區博愛路271號","22.629","120.367"
"74DA38F20CCA","屏東縣縣立南華國小","[906]屏東縣高樹鄉南華村世一路1號","25.062","121.451"
"74DA38F20BA8","高雄市市立六龜高中","高雄市立六龜高級中學 高雄市六龜區義寶里光復路212號","22.993","120.635"
"74DA38F20914","苗栗縣縣立南和國小","[357]苗栗縣通霄鎮南和里117號","24.448","120.721"
"74DA38F20F28","高雄市市立六龜國小","高雄市六龜國小 高雄市六龜區義寶里光復路40號","22.996","120.634"
"74DA38F20FEC","高雄市市立復安國小","高雄市復安國小 高雄市阿蓮區復安里167號","22.849","120.324"
"74DA38C7D16A","金門縣立賢庵國小","[893]金門縣金城鎮賢厝村庵前18之2號","24.417","118.318"
"74DA38F211D4","屏東縣縣立地磨兒國小","[901]屏東縣三地門鄉三地村行政街9號","22.631","120.621"
"74DA38F20CA4","屏東縣縣立大路關國(中)小-關福分校","[906]屏東縣高樹鄉廣福村中央路60號","22.764","120.616"
"74DA38F7C4CA","新北市三重高中","N/A","25.027","121.417"
"74DA38F209CC","屏東縣縣立德協國小","[908]屏東縣長治鄉德成村中興路551號","22.693","120.541"
"74DA38F210D0","屏東縣縣立里港國中","[905]屏東縣里港鄉春林村里中路10號","22.771","120.496"
"74DA38F20ECC","屏東縣縣立南州國中","[926]屏東縣南州鄉人和路231號","22.487","120.505"
"74DA38F20D02","屏東縣縣立崎峰國小","[927]屏東縣林邊鄉崎峰村裕後路2號","22.426","120.493"
"74DA38F20B6A","苗栗縣縣立竹興國小","[350]苗栗縣竹南鎮竹興里竹圍街27號","24.687","120.864"
"74DA38F21000","高雄市市立三埤國小","高雄市三埤國小 高雄市路竹區民權路7號","22.837","120.28"
"74DA38F7C628","市立博愛國小","臺北市信義區松仁路22鄰95巷20號","25.035","121.57"
"74DA38F21046","高雄市市立甲圍國小","高雄市甲圍國小 高雄市橋頭區甲北里甲昌路250號","22.735","120.294"
"08BEAC0A05AE","臺南市市立大光國小","臺南市北區長榮路五段277號","22.98548962","120.2168919"
"08BEAC0A061C","臺南市市立後甲國中","臺南市東區林森路二段260號","22.99626569","120.2252283"
"74DA38F20CFA","屏東縣縣立天南國小","[929]屏東縣琉球鄉南福村忠孝路27號","22.33","120.362"
"74DA38F20C84","苗栗縣縣立福興武術國(中)小","[357]苗栗縣通霄鎮福興里58之2號","24.425","120.727"
"74DA38F210EC","新竹縣縣立玉山國小","[306]新竹縣關西鎮玉山里四鄰25號","24.757","121.208"
"74DA38F208FE","屏東縣私立陸興高中附設國中","[900]屏東縣屏東市豐田里廣東路150號","22.725","120.542"
"74DA38E2B614","嘉義縣備品","嘉義縣","23.474","120.437"
"74DA38F20E56","宜蘭縣縣立南澳國小","[272]宜蘭縣南澳鄉南澳村中正路15號","24.466","121.8"
"74DA38F20C2A","高雄市市立壽齡國小","高雄市壽齡國小 高雄市彌陀區文安里國校路1號","22.795","120.234"
"74DA38F21060","高雄市市立屏山國小","高雄市屏山國小 高雄市左營區海功東路2號","22.694","120.301"
"74DA38F20EFC","高雄市市立太平國小","高雄市太平國小 高雄市小港區營口路1號","22.571","120.371"
"74DA38F21190","宜蘭縣縣立大同國中","[267]宜蘭縣大同鄉太平村一鄰泰雅路四段35號","24.574","121.478"
"74DA38F7C482","新北市竹圍高中","N/A","25.146","121.462"
"08BEAC0A06FA","臺南市市立南化國小","臺南市南化區南化里17號","23.04414428","120.4703868"
"74DA38F2109A","市立南湖國小","臺北市內湖區葫洲里康寧路3段200號","25.066","121.611"
"08BEAC0A0102","臺中市立東平國小","臺中市太平區中興東路213號","24.13319483","120.7161358"
"74DA38F20C74","苗栗縣縣立竹南國小","[350]苗栗縣竹南鎮中正路146號","24.684","120.869"
"74DA38F20C64","苗栗縣縣立尖山國小","[351]苗栗縣頭份市尖下里尖豐路305號","24.654","120.882"
"74DA38F20C68","苗栗縣縣立僑善國小","[351]苗栗縣頭份市中正一路395號","24.686","120.934"
"08BEAC0A003C","臺中市立和平國小","臺中市和平區南勢里東關路三段54號","24.17113971","120.8956432"
"74DA38F20C72","苗栗縣縣立西湖國小",,"24.557","120.757"
"74DA38F20C76","苗栗縣縣立六合國小","[351]苗栗縣頭份市東庄里民族路252號","24.683","120.899"
"74DA38F20D2C","市立瑠公國中","臺北市信義區福德街221巷15號","25.038","121.585"
"74DA38F20EDC","屏東縣縣立內埔國中","[912]屏東縣內埔鄉文化路262號","22.611","120.57"
"08BEAC0A0772","桃園市市立大埔國小","[333]桃園市龜山區振興路1169號","25.03019213","121.3748073"
"74DA38F2103E","新竹縣備品","[307]新竹縣芎林鄉文林村四鄰文山路288號","24.774","121.083"
"74DA38F20BFE","高雄市市立忠孝國小","高雄市忠孝國小 高雄市鹽埕區大智路71號","22.621","120.285"
"74DA38F20FA2","澎湖縣縣立赤崁國小","[884]澎湖縣白沙鄉赤崁村370號","23.648","119.595"
"74DA38F20C44","屏東縣縣立東新國中","[928]屏東縣東港鎮興東里東新路1號","22.661","120.479"
"74DA38C7D178","金門縣立多年國小","[890]金門縣金沙鎮環島東路4段600號","24.452","118.454"
"08BEAC0A076A","桃園市市立壽山國小","桃園市龜山區萬壽路二段6巷61號","25.0030689","121.3647487"
"74DA38F21202","宜蘭縣縣立羅東國中","[265]宜蘭縣羅東鎮中華路99號","24.682","121.767"
"74DA38F20A84","苗栗縣縣立談文國小","[361]苗栗縣造橋鄉談文村六鄰54號","24.652","120.85"
"74DA38F2095A","新竹縣縣立寶山國中莒光分校","[308]新竹縣寶山鄉新湖路一段386號","24.736","121.025"
"74DA38F20EE6","高雄市市立寶山國小","高雄市寶山國小 高雄市桃源區寶山里2鄰15號","23.055","120.722"
"74DA38F7C61C","市立吳興國小","臺北市信義區松仁路226號","25.025","121.568"
"74DA38F210FA","高雄市市立新莊國小","高雄市新莊國小 高雄市左營區自由三路1號","22.669","120.309"
"08BEAC0A0170","臺南市市立長興國小","臺南市仁德區土庫路6號","22.9903984","120.2601868"
"74DA38F2091C","台東縣縣立桃源國中","[953]臺東縣延平鄉桃源村昇平路178號","22.902","121.08"
"08BEAC0A0106","臺中市立新光國小","臺中市太平區新興里新興路200號","24.15970731","120.7066892"
"74DA38F20FB8","高雄市市立正興國小","高雄市正興國小 高雄市三民區大豐二路20號","22.646","120.326"
"74DA38F20E30","高雄市市立獅甲國中","高雄市立獅甲國民中學 高雄市前鎮區建隆里中山三路43號","22.604","120.308"
"74DA38F20BA6","高雄市市立中正高中","高雄市立中正高級中學 高雄市苓雅區正義里中正一路8號","22.626","120.339"
"74DA38F20E24","宜蘭縣縣立憲明國小","[266]宜蘭縣三星鄉天山村福山街119號","24.661","121.618"
"74DA38F20D06","高雄市市立福誠國小","高雄市福誠國小 高雄市鳳山區忠誠路145號","25.062","121.451"
"74DA38F7C50A","市立景美國中","臺北市文山區景華里景中街27號","24.993","121.543"
"74DA38F20B96","高雄市市立文山高中","高雄市立文山高級中學 高雄市鳥松區文德里大埤路31號","22.647","120.353"
"74DA38F7C4AC","新北市廣福國小","N/A","24.986","121.454"
"74DA38F20F8E","澎湖縣縣立內垵國小","[881]澎湖縣西嶼鄉內垵村229號","23.57","119.498"
"74DA38F20C32","高雄市市立興達國小","高雄市興達國小 高雄市茄萣區民治路2號","22.876","120.196"
"74DA38F208A0","宜蘭縣縣立新南國小","[263]宜蘭縣壯圍鄉新南村120之1號","24.722","121.799"
"74DA38F7C510","市立民權國中","臺北市大同區重慶北路三段1號","25.064","121.514"
"74DA38F20F3C","市立舊莊國小","臺北市南港區舊莊里舊莊街1段100號","25.04","121.619"
"74DA38F20B10","高雄市市立樟山國小","高雄市樟山國小 高雄市桃源區拉芙蘭里南公路五段440號","23.252","120.819"
"08BEAC09FFA4","臺中市立萬和國中","40877臺中市南屯區永春東路885號","24.134294","120.6403907"
"74DA38F20DA4","苗栗縣烏眉國小楓樹分校","[357]苗栗縣通霄鎮楓樹里10鄰116號","24.495","120.722"
"74DA38F210FC","台東縣縣立豐源國小","[950]臺東縣臺東市中華路四段392號","22.73","121.108"
"08BEAC0A07CE","桃園市市立溪海國小","[337]桃園市大園區溪海里十一鄰和平西路一段420號","25.0467979","121.1865009"
"74DA38F20C82","苗栗縣縣立新興國小","[351]苗栗縣頭份市下興里水源路157號","24.675","120.913"
"74DA38F7C4E2","新北市光榮國中","N/A","25.07","121.499"
"08BEAC0A034A","臺南市市立博愛國小","[701]臺南市東區圍下里前鋒路100號","22.99307518","120.2130248"
"74DA38F20DA8","屏東縣縣立塭子國小","[931]屏東縣佳冬鄉塭豐村中興路1號","22.409","120.525"
"08BEAC0A0408","臺南市市立永康區勝利國小","[710]臺南市永康區勝學路111號","23.0039843","120.230354"
"08BEAC0A0382","臺中市立富春國小","臺中市豐原區中山路455號","24.25223012","120.7137841"
"74DA38F20CDC","屏東縣縣立長治國中","[908]屏東縣長治鄉德成村中興路578號","22.693","120.544"
"74DA38F20DA6","苗栗縣育英國小龍騰分校","苗栗縣三義龍騰村鄉外庄49號","24.357","120.776"
"74DA38B05454","嘉義市立嘉義國中","[600]嘉義市東區王田里圓福街86號","23.487","120.465"
"74DA38F7C30C","新北市新店高中","N/A","24.975","121.532"
"74DA38F7C5B2","市立麗山國中","臺北市內湖區內湖路一段629巷42號","25.084","121.566"
"08BEAC0A06F6","臺南市市立將軍國中","臺南市將軍區忠嘉里昌平1之1號","23.206275","120.1498032"
"74DA38F211CC","屏東縣縣立五溝國小","[923]屏東縣萬巒鄉五溝村西盛路89號","22.59","120.593"
"74DA38F20D24","高雄市市立潮寮國中","高雄市立潮寮國民中學 高雄市大寮區潮寮里潮寮路51-9號","22.564","120.424"
"74DA38F20F7E","澎湖縣縣立將軍國小","[882]澎湖縣望安鄉將軍村12-8號","23.364","119.525"
"74DA38F20C7C","澎湖縣縣立外垵國小","[881]澎湖縣西嶼鄉外垵村29號之3","23.567","119.481"
"74DA38F20E54","宜蘭縣縣立大同國小","[267]宜蘭縣大同鄉崙埤村10之9號","24.678","121.609"
"08BEAC0A0056","臺中市立九德國小","41445臺中市烏日區九德里長春街300號","24.1096923","120.639177"
"74DA38F7C358","市立東門國小","臺北市中正區東門里仁愛路一段2-4號","25.038","121.52"
"74DA38F208AA","苗栗縣縣立文山國小","[360]苗栗縣苗栗市文山里4鄰文山41號","24.568","120.812"
"74DA38F20DBC","澎湖縣縣立沙港國小","[885]澎湖縣湖西鄉鼎灣村75號","23.595","119.616"
"08BEAC0A0204","嘉義縣縣立太和國小","嘉義縣梅山鄉太和村三鄰18號","23.5343063","120.7207781"
"08BEAC0A0710","臺南市市立新市國小","[744]臺南市新市區中興街1號","23.0788733","120.2957801"
"08BEAC0A045A","臺中市立泰安國小","40760臺中市西屯區環中路二段368號","24.1978683338","120.648902692"
"08BEAC0A0192","臺中市立公明國小","43346臺中市沙鹿區公明里忠貞路213號","24.2432564","120.6094182"
"74DA38F20BC6","高雄市市立和平國小","高雄市和平國小 高雄市岡山區和平路1號","22.781","120.303"
"74DA38F7C4EC","新北市景新國小","N/A","24.989","121.515"
"08BEAC0A0494","桃園市市立四維國小","[326]桃園市楊梅區金龍三路95號","24.91201121","121.1843914"
"08BEAC0A0268","桃園市市立永福國小","桃園市大溪區永福里信義路十二鄰1165號","24.89303695","121.3258542"
"74DA38F2108A","屏東縣縣立霧臺國小","[902]屏東縣霧臺鄉霧臺村中山巷44號","22.745","120.731"
"74DA38F20BD4","新竹縣縣立新豐國小","[304]新竹縣新豐鄉重興村明德巷13號","24.9","120.988"
"74DA38F20AB6","台東縣縣立電光國小","[956]臺東縣關山鎮電光里中興路93號","23.005","121.178"
"74DA38F2100C","高雄市市立苓洲國小","高雄市苓洲國小 高雄市苓雅區四維四路61號","22.615","120.3"
"74DA38F20A94","屏東縣縣立牡丹國小","[945]屏東縣牡丹鄉牡丹村牡丹路93號","22.176","120.837"
"74DA38F21184","新竹縣竹林分校","[311]新竹縣五峰鄉竹林村羅山15號","24.625","121.148"
"74DA38F209F4","新竹縣縣立信勢國小","[303]新竹縣湖口鄉成功路360號","24.899","121.038"
"74DA38C7D60C","新竹市立南隘國小","[300]新竹市香山區南隘路二段31號","24.726","120.929"
"74DA38F20BCE","高雄市市立興田國小","高雄市興田國小 高雄市大樹區興田里興田路59號","22.74","120.445"
"08BEAC0A05A4","桃園市市立介壽國小","[336]桃園市復興區澤仁里中正路33號","24.8156245","121.35105"
"74DA38F20EEA","屏東縣縣立高泰國中","[906]屏東縣高樹鄉泰山村產業路225號","22.796","120.374"
"74DA38F7C534","新北市厚德國小","N/A","25.071","121.488"
"08BEAC09FFA6","臺中市立烏石分校","臺中市和平區自由里東崎路二段烏石巷61號","24.29291333","120.9350816"
"74DA38F2080E","高雄市市立永芳國小","高雄市永芳國小 高雄市大寮區鳳林三路499號","22.605","120.395"
"08BEAC0A04E0","桃園市市立普仁國小","桃園市中壢區中山東路二段425號","24.94975166","121.2447283"
"08BEAC0A0390","臺中市立長安國小","臺中市西屯區櫻花路18號","24.169662","120.653243"
"08BEAC0A0036","臺中市立自由國小","臺中市和平區自由里東崎路二段49號","24.29141333","120.9091333"
"74DA38F20D98","澎湖縣縣立山水國小","[880]澎湖縣馬公市山水里140號","23.522","119.595"
"08BEAC0A019C","嘉義縣縣立光華國小","嘉義縣竹崎鄉光華村四鄰10號","23.47260972","120.6699748"
"74DA38F20A62","台東縣縣立利嘉國小","[954]臺東縣卑南鄉利嘉村利嘉路666號","22.776","121.062"
"74DA38F208B0","台東縣縣立錦屏國小","[957]臺東縣海端鄉廣原村錦屏1號","23.132","121.176"
"74DA38F7C5D2","新北市青山國中","N/A","25.059","121.656"
"74DA38F20E9C","新竹縣縣立博愛國小","[302]新竹縣竹北市光明六路72號","24.831","121.005"
"08BEAC09FFC4","臺中市立中華國小","臺中市太平區大源路1之20號","24.14763549","120.7259451"
"08BEAC0A00D8","臺南市市立東原國小","臺南市東山區東原里23鄰8號","23.2663897","120.446666"
"74DA38F20B7E","市立西湖國小","臺北市內湖區西湖里環山路1段25號","25.083","121.565"
"74DA38F20D1C","屏東縣縣立佳佐國小","[923]屏東縣萬巒鄉佳和村佳興路59號","22.571","120.595"
"74DA38C7CF7A","金門縣備品","金門縣","55.687","12.527"
"74DA38F20FD2","澎湖縣縣立合橫國小","[881]澎湖縣西嶼鄉合界村76號之2","23.638","119.531"
"08BEAC09FFA0","桃園市市立北門國小","桃園市桃園區正康三街139號","25.0073154","121.3068939"
"74DA38B053BA","嘉義私立仁義高級中學","[600]嘉義市鹿寮里紅毛碑125之1號","23.459","120.486"
"74DA38F208EA","屏東縣縣立泰武國小","[921]屏東縣泰武鄉泰武村阿夫魯岸路1號","22.606","120.61"
"74DA38C7D63C","新竹市立竹蓮國小","[300]新竹市東區食品路226號","25.062","121.451"
"74DA38F211E0","宜蘭縣縣立蘇澳國中","[270]宜蘭縣蘇澳鎮中山路二段1號","24.595","121.836"
"08BEAC0A04D2","桃園市市立大園國小","桃園市大園區橫峰里中正東路160號","25.06","121.203"
"74DA38F20900","宜蘭縣縣立壯圍國小","[263]宜蘭縣壯圍鄉吉祥村壯五路55號","24.743","121.79"
"74DA38F20840","台東縣縣立土坂國小","[966]臺東縣達仁鄉土坂村10號","22.454","120.885"
"74DA38F20EAA","新竹縣縣立光明國小","[302]新竹縣竹北市光明九路65號","24.824","121.009"
"74DA38F20D4A","新竹縣縣立竹北國小","[302]新竹縣竹北市中央路98號","24.838","121.002"
"74DA38F7C456","新北市永和國中","N/A","25.006","121.522"
"74DA38F21092","市立平等國小","臺北市士林區平等里平菁街101號","25.129","121.576"
"74DA38F7C5C0","市立內湖國中","臺北市內湖區紫陽里陽光街1號","25.076","121.588"
"08BEAC0A0500","臺南市市立公園國小","臺南市北區公園里公園路180號","22.98548962","120.2168919"
"08BEAC0A0528","臺南市市立官田國中","臺南市官田區隆田里三民路29號","23.18861463","120.3148084"
"74DA38F7C548","新北市欽賢國中","N/A","25.107","121.815"
"74DA38F7C45A","新北市石門幼兒園","N/A","25.294","121.568"
"74DA38C7CEA4","嘉義市立林森國小","[600]嘉義市東區林森東路346號","23.489","120.466"
"74DA38F209E2","新竹縣縣立麻園國小","[302]新竹縣竹北市麻園里長園一街236號","24.847","120.977"
"74DA38F20A9C","屏東縣縣立潮和國小","[920]屏東縣潮州鎮三和里華巖街1號","22.556","120.538"
"74DA38F211B0","屏東縣縣立潮東國小","[920]屏東縣潮州鎮九塊里復興路66號","22.522","120.56"
"74DA38F20858","台東縣縣立廣原國小","[957]臺東縣海端鄉廣原村大埔路一鄰1號","23.149","121.207"
"08BEAC0A00FC","臺中市立馬鳴國小","臺中市外埔區中山里東西巷13號","24.33796139","120.6648059"
"74DA38F20C5E","苗栗縣縣立永貞國小","[351]苗栗縣頭份市田寮里永貞路一段335號","24.68","120.884"
"74DA38F2119E","高雄市市立龍華國中","高雄市立龍華國民中學 高雄市左營區新上里自由二路2號","22.658","120.309"
"74DA38F20D9C","澎湖縣縣立五德國小","[880]澎湖縣馬公市五德里32號","23.527","119.591"
"74DA38F7C448","新北市石碇國小","N/A","24.99","121.659"
"08BEAC0A07A6","臺南市市立善化國小","[741]臺南市善化區進學路63號","23.13558302","120.2890283"
"74DA38F20CAA","屏東縣縣立田子國小","[906]屏東縣高樹鄉鹽樹村公平路19號","22.804","120.577"
"74DA38F20E94","新竹縣縣立新樂國小","[313]新竹縣尖石鄉新樂村一鄰10號","24.731","121.25"
"74DA38F20FE6","屏東縣縣立仙吉國小","[932]屏東縣新園鄉仙吉村仙吉路91號","22.544","120.46"
"08BEAC0A02AC","臺中市立東興國小","臺中市新社區東興里興社街1段國校巷13號","24.2076782","120.8204744"
"74DA38F21050","高雄市市立月美國小","高雄市月美國小 高雄市杉林區月眉里清水路象寮巷39號","22.958","120.535"
"74DA38C7D57A","新竹市立三民國中","[300]新竹市東區自由路95巷15號","24.812","120.979"
"08BEAC0A0438","臺中市立建功國小","臺中市北屯區軍功里軍和街43號","25.0625218","121.5823706"
"08BEAC09FF8A","臺中市立豐南國中","臺中市豐原區豐南街151號","24.24004666","120.717815"
"74DA38F20CF0","屏東縣縣立港東國小","[924]屏東縣崁頂鄉越溪村復興路96號","22.508","120.481"
"74DA38F7C43A","新北市重陽國小","N/A","25.066","121.484"
"08BEAC0A00DE","臺南市市立三慈國小","[727]臺南市北門區慈安里381號","23.2390257","120.1100286"
"08BEAC0A06A0","嘉義縣縣立三興國小","嘉義縣民雄鄉三興村陳厝寮55號","23.55774083","120.4821468"
"74DA38F20B16","高雄市市立桃源國小","高雄市桃源國小 高雄市桃源區北進巷50號","23.16","120.765"
"08BEAC0A00EC","桃園市市立大崙國小","桃園市中壢區崇德路139號","24.99","121.18"
"74DA38F20D70","台東縣縣立關山國小","[956]臺東縣關山鎮中華路101號","23.05","121.164"
"74DA38B053F4","新竹市立成德高中附設國中","[300]新竹市北區崧嶺路128巷38號","24.79","120.952"
"74DA38C7CF76","金門縣立金湖國中","[891]金門縣金湖鎮太湖路三段1號","24.437","118.421"
"74DA38C7D16C","金門縣立金寧國(中)小","[892]金門縣金寧鄉安岐1號","24.448","118.337"
"74DA38F20AA0","苗栗縣縣立中和國小","[356]苗栗縣後龍鎮中和里十四鄰一五二號","24.588","120.735"
"74DA38F210CC","屏東縣縣立高樹國中","[906]屏東縣高樹鄉高樹村南興路4號","22.816","120.604"
"74DA38F20F2A","高雄市市立龍興國小","高雄市龍興國小 高雄市六龜區中興里中庄路193號","22.993","120.645"
"74DA38F20DEA","高雄市市立吉洋國小","高雄市吉洋國小 高雄市美濃區忠孝路二段59號","22.861","120.521"
"74DA38F208D2","宜蘭縣縣立南屏國小","[263]宜蘭縣壯圍鄉大福村大福路一段62巷26號","24.801","121.814"
"74DA38F211C6","屏東縣縣立豐田國小","[912]屏東縣內埔鄉豐田村新中路49號","22.626","120.54"
"74DA38F208D8","宜蘭縣縣立永樂國小","[270]宜蘭縣蘇澳鎮永樂路1號","24.575","121.844"
"74DA38F208CE","宜蘭縣縣立公正國小","[265]宜蘭縣羅東鎮公正路199號","24.678","121.766"
"74DA38F208DC","台東縣縣立賓茂國小","[964]臺東縣金峰鄉賓茂村68號","22.532","120.954"
"74DA38F208C2","宜蘭縣縣立蘇澳國小","[270]宜蘭縣蘇澳鎮中山路一段366號","24.596","121.841"
"74DA38F7C60A","市立興雅國小","臺北市信義區雅祥里基隆路1段83巷9號","25.046","121.569"
"74DA38F7C620","市立西松國小","臺北市松山區東光里三民路5號","25.052","121.563"
"74DA38F20EAE","新竹縣縣立石磊國小","[313]新竹縣尖石鄉玉峰村十鄰49號","24.655","121.326"
"74DA38F7C50E","市立蘭州國中","臺北市大同區至聖里大龍街187巷1號","25.07","121.514"
"74DA38F21074","高雄市市立觀亭國小","高雄市觀亭國小 高雄市內門區觀亭里中正路203號","22.918","120.453"
"74DA38F20D9A","澎湖縣縣立時裡國小","[880]澎湖縣馬公市時裡里114號","23.527","119.568"
"74DA38ED042A","花蓮縣立秀林國小","[972]花蓮縣秀林鄉秀林村秀林路76號","24.118","121.624"
"74DA38F20A22","苗栗縣縣立造橋國小","[361]苗栗縣造橋鄉造橋村十四鄰3號","24.637","120.865"
"74DA38F20E96","新竹縣縣立梅花國小","[313]新竹縣尖石鄉梅花村1鄰25號","24.677","121.208"
"08BEAC0A0254","嘉義縣縣立碧潭國小","嘉義縣鹿草鄉碧潭村184號","23.38699058","120.2990954"
"08BEAC09FF56","臺中市立汝鎏國小","臺中市大雅區秀山里平和路238號","24.23129943","120.6265397"
"08BEAC0A0272","嘉義縣縣立梅圳國小","嘉義縣梅山鄉圳南村三源23號","23.576795","120.590165"
"74DA38F20F66","高雄市市立桂林國小","高雄市桂林國小 高雄市小港區桂陽路390號","22.583","120.35"
"74DA38F20896","宜蘭縣縣立公館國小","[263]宜蘭縣壯圍鄉紅葉村69號","24.735","121.816"
"08BEAC0A076C","桃園市壽山高中","桃園市龜山區大同路23號","24.99461531","121.3414835"
"74DA38F7C3D8","市立吉林國小","臺北市中山區中原里長春路116號","25.054","121.528"
"08BEAC0A00B4","臺南市市立永安國小","臺南市後壁區嘉田里48之5號","23.38474166","120.3871333"
"08BEAC0A068A","雲林縣縣立山峰國小","雲林縣古坑鄉荷苞村山峰路十七號","23.6305833","120.6158288"
"74DA38ED04F8","花蓮縣立富源國小","[978]花蓮縣瑞穗鄉富源村30號","23.578","121.375"
"74DA38C7D176","金門縣立金沙國小","[890]金門縣金沙鎮汶沙里后浦頭117號","24.488","118.411"
"74DA38F20A3A","苗栗縣縣立南埔國小","[353]苗栗縣南庄鄉南富村134號","24.635","120.973"
"74DA38F20BE0","高雄市市立大社國小","高雄市大社國小 高雄市大社區三民路336號","22.73","120.346"
"08BEAC0A07B8","臺南市市立渡拔國小","臺南市官田區拔林里77之1號","23.17108938","120.326773"
"08BEAC0A0378","臺南市市立蚵寮國小","[727]臺南市北門區鯤江里791號","23.2865028","120.1378662"
"74DA38F20D14","市立介壽國中","臺北市松山區介壽里延壽街401號","25.054","121.564"
"74DA38F7C446","新北市坪林國小","N/A","24.96","121.736"
"74DA38F20B00","高雄市市立鎮北國小","高雄市鎮北國小 高雄市鳳山區鳳北路170號","22.642","120.367"
"74DA38F20E88","苗栗縣縣立豐田國小","[369]苗栗縣卓蘭鎮豐田里36號","24.325","120.823"
"74DA38F20E8A","苗栗縣縣立內灣國小","[369]苗栗縣卓蘭鎮內灣里120號","24.298","120.849"
"74DA38F20E90","新竹縣縣立玉峰國小","[313]新竹縣尖石鄉玉峰村五鄰59號","24.659","121.301"
"74DA38F20C08","新竹縣縣立橫山國小","[312]新竹縣橫山鄉橫山村橫山100號","24.718","121.115"
"74DA38F2112C","台東縣縣立光明國小","[950]臺東縣臺東市中興路二段150巷29弄1號","22.769","121.129"
"08BEAC245CD2","苗栗縣立談文國小(2020)","[361]苗栗縣造橋鄉談文村六鄰54號","24.652","120.85"
"08BEAC2528BE","宜蘭縣縣立員山國小(2020)",,"24.744","121.722"
"08BEAC252BF4","新竹縣縣立新樂國小(2020)",,"24.732","121.251"
"08BEAC0A05CC","嘉義縣縣立民雄國中","嘉義縣民雄鄉西安村西安路147號","23.55690966","120.4203404"
"74DA38F20EDE","屏東縣縣立竹田國中","[911]屏東縣竹田鄉西勢村龍門路26號","22.616","120.523"
"74DA38F20EE0","屏東縣縣立崇文國中","[912]屏東縣內埔鄉龍潭村昭勝路438號","22.678","120.602"
"74DA38F7C492","新北市蘆洲幼兒園","N/A","25.09","121.459"
"74DA38F21024","新竹縣備品","[304]新竹縣新豐鄉福興村113號","24.93","121.036"
"74DA38C7D58A","新竹市立光武國中","[300]新竹市東區光復路一段512號","24.786","121.011"
"74DA38F20802","高雄市市立曹公國小","高雄市曹公國小 高雄市鳳山區曹公路6號","22.627","120.357"
"74DA38F2094A","新竹縣縣立關西國中","[306]新竹縣關西鎮北斗里北門口41號","24.798","121.173"
"74DA38F20C4C","苗栗縣縣立致民國中","[358]苗栗縣苑裡鎮舊社里九鄰96之1號","24.418","120.685"
"74DA38F20CE4","屏東縣縣立鶴聲國中","[900]屏東縣屏東市大武路225號","22.659","120.472"
"74DA38F20B78","高雄市市立燕巢國小","高雄市燕巢國小 高雄市燕巢區東燕里中華路177號","22.795","120.365"
"74DA38F20F6E","高雄市市立甲仙國小","高雄市甲仙國小 高雄市甲仙區西安里文化路45號","23.081","120.589"
"74DA38F20C24","高雄市市立鼎金國中","高雄市立鼎金國民中學 高雄市三民區灣成里007鄰鼎山街４４５號","22.655","120.321"
"74DA38F20F74","新竹縣縣立五峰國中","[311]新竹縣五峰鄉大隘村六鄰113號","24.632","121.118"
"74DA38F20D48","苗栗縣縣立三灣國中","[352]苗栗縣三灣鄉三灣村忠信路17號","24.649","120.953"
"74DA38F20E18","新竹縣縣立中山國小","[310]新竹縣竹東鎮雞林里中山路70號","24.732","121.094"
"74DA38F20E12","高雄市市立光華國中","高雄市立光華國民中學 高雄市前鎮區竹東里和平二路170號","22.61","120.322"
"74DA38F20F00","宜蘭縣縣立金岳國小","[272]宜蘭縣南澳鄉金岳村 (路) 二號","24.471","121.777"
"74DA38F21016","新竹縣備品","[306]新竹縣關西鎮東光里十六張49號","24.78","121.18"
"74DA38F7C304","新北市坪林國中","N/A","24.938","121.712"
"74DA38F211A4","市立文化國小","臺北市北投區文化里文化三路1號","25.137","121.496"
"08BEAC0A07DC","嘉義縣縣立中興國小","嘉義縣竹崎鄉中和村石棹10號","23.4774241","120.697215"
"74DA38F7C552","新北市北峰國小","N/A","25.063","121.632"
"74DA38F7C5FA","新北市福連國小","N/A","25.016","121.988"
"74DA38F211BE","屏東縣縣立潮南國小","[920]屏東縣潮州鎮興美里興美路24號","22.512","120.537"
"74DA38F211C2","屏東縣縣立光華國小","[920]屏東縣潮州鎮光華里南進路2號","22.547","120.543"
"08BEAC0A0742","臺南市市立永仁高中附設國中","臺南市永康區忠孝路74號","23.0030898","120.2409516"
"74DA38F7C5E4","新北市錦和高中","N/A","24.991","121.491"
"74DA38F7C33A","新北市大觀國小","N/A","25.009","121.448"
"74DA38F20C8A","苗栗縣縣立大埔國小","[350]苗栗縣竹南鎮大埔里仁愛路1092號","24.708","120.89"
"74DA38F208B6","宜蘭縣縣立古亭國小","[263]宜蘭縣壯圍鄉古亭村古亭路81號","24.771","121.798"
"08BEAC0A02BA","桃園市市立建德國小","桃園市桃園區延平路265號","24.97663333","121.314715"
"08BEAC0A0656","臺南市市立協進國小","臺南市中西區金華路四段17號","22.997384","120.193853"
"74DA38C7CEB0","嘉義市立世賢國小","[600]嘉義市西區世賢路一段687號","23.489","120.428"
"74DA38F20E5C","苗栗縣縣立外埔國小","[356]苗栗縣後龍鎮外埔里六鄰18-9號","24.651","120.778"
"08BEAC0A04EE","臺中市立七星國小","臺中市后里區墩南里南村路389號","24.30158479","120.7111912"
"08BEAC0A05D2","臺南市市立立人國小","臺南市北區西門路三段41號","22.98548962","120.2168919"
"74DA38F207DE","高雄市市立正義國小","高雄市正義國小 高雄市鳳山區正義里南昌街55號","22.603","120.34"
"74DA38F20E60","苗栗縣縣立龍坑國小","[356]苗栗縣後龍鎮龍坑里158號","24.602","120.778"
"74DA38F20CEA","屏東縣縣立仁和國小","[927]屏東縣林邊鄉仁和村中山路417號","22.437","120.511"
"74DA38F20E7A","苗栗縣縣立雙連國小","[369]苗栗縣卓蘭鎮坪林里雙連16-1號","24.337","120.848"
"74DA38F20ABA","台東縣縣立德高國小","[956]臺東縣關山鎮德高里7鄰永豐16號","23.074","121.177"
"74DA38F20BC2","屏東縣縣立古華國小","[942]屏東縣春日鄉古華村古華路3巷63號","22.361","120.625"
"74DA38F20A86","苗栗縣縣立錦水國小","[361]苗栗縣造橋鄉大西村13鄰大中街68號","24.624","120.893"
"74DA38F20AD2","基隆市立長興國小","[206]基隆市七堵區東新街3號","25.092","121.713"
"74DA38F20A68","苗栗縣縣立九湖國小","[366]苗栗縣銅鑼鄉九湖村10鄰91之1號","24.473","120.776"
"74DA38F20A54","屏東縣縣立復興國小","[900]屏東縣屏東市永安里復興南路376號","22.659","120.486"
"74DA38F20C70","苗栗縣縣立五湖國小","[368]苗栗縣西湖鄉五湖村上湖96號","24.522","120.776"
"74DA38F20C7E","苗栗縣縣立斗煥國小","[351]苗栗縣頭份市斗煥里中正二路221號","24.681","120.947"
"08BEAC0A021E","臺中市立僑仁國小","臺中市烏日區中山路1段341號","24.1079551","120.6404708"
"08BEAC0A07BE","臺南市市立後營國小","臺南市西港區營西里3號","23.1406702","120.2149521"
"74DA38F7C460","新北市北港國小","N/A","25.089","121.645"
"74DA38F7C53E","新北市豐珠國中","N/A","25.066","121.901"
"08BEAC09FFB0","嘉義縣縣立三江國小","嘉義縣東石鄉三家村16號","23.469","120.175"
"74DA38F211C4","屏東縣縣立赤山國小","[923]屏東縣萬巒鄉赤山村建興路40號","22.592","120.614"
"08BEAC0A019A","臺南市市立土庫國小","臺南市新營區土庫里71之1號","23.32","120.345"
"74DA38F20D10","屏東縣縣立水利國小","[927]屏東縣林邊鄉水利村豐漁路117號","22.418","120.504"
"74DA38F7C462","新北市柑園國中","N/A","24.954","121.384"
"08BEAC0A0866","臺南市市立永康區復興國小","臺南市永康區華興街2號","23.0012034","120.2388601"
"74DA38F7C408","新北市三重商工","N/A","25.069","121.481"
"74DA38F21030","新竹縣縣立仁愛國中","[302]新竹縣竹北市三民路239號","24.832","121.015"
"74DA38F21188","新竹縣田埔分校","[313]新竹縣尖石鄉秀巒村田埔一鄰5號","24.641","121.278"
"74DA38F211A0","屏東縣縣立大光國小","[946]屏東縣恆春鎮大光里大光路8之6號","21.966","120.755"
"74DA38F211A6","市立桃源國小","臺北市北投區中央北路3段40巷45號","25.139","121.483"
"74DA38F7C340","市立福星國小","臺北市萬華區福星里中華路一段66號","25.048","121.548"
"74DA38F21194","澎湖縣縣立七美國中","[883]澎湖縣七美鄉中和村4號","23.205","119.429"
"74DA38F20F6C","高雄市市立鳳林國小","高雄市鳳林國小 高雄市小港區鳳林路207號","22.526","120.342"
"74DA38F7C3E6","市立老松國小","臺北市萬華區福音里桂林路64號","25.037","121.502"
"08BEAC0A05E4","嘉義縣縣立後塘國小","嘉義縣鹿草鄉三角村毛蟹行11號","23.40532955","120.3368918"
"74DA38F20E68","苗栗縣縣立南湖國小","[364]苗栗縣大湖鄉義和村南昌路5號","24.398","120.866"
"74DA38F20A44","屏東縣縣立勝利國小","[900]屏東縣屏東市勝利里蘭州街2號","22.68","120.486"
"74DA38F7C614","新北市新店國小","N/A","24.953","121.539"
"74DA38F20B4A","基隆市立建德國中","[204]基隆市安樂區安和一街29號","25.124","121.722"
"74DA38F20862","台東縣縣立海端國小","[957]臺東縣海端鄉海端村山界路36號","23.101","121.176"
"74DA38ED06E0","花蓮縣立豐濱國中","[977]花蓮縣豐濱鄉光豐路26號","23.601","121.521"
"74DA38ED074E","花蓮縣立溪口國小","[974]花蓮縣壽豐鄉溪口村溪口路87號","23.819","121.473"
"08BEAC0A0250","嘉義縣縣立景山國小","嘉義縣布袋鎮東港里136號","23.38272987","120.193133"
"74DA38F207E0","苗栗縣縣立興隆國小","[366]苗栗縣銅鑼鄉興隆村117號","24.462","120.811"
"74DA38F20B5E","苗栗縣縣立蟠桃國小","[351]苗栗縣頭份市信東路285號","24.692","120.906"
"74DA38F207E2","苗栗縣縣立銅鑼國小","[366]苗栗縣銅鑼鄉福興村文化街1號","24.49","120.791"
"74DA38F20DF2","高雄市市立嘉興國中","高雄市立嘉興國民中學 高雄市岡山區嘉興里信中街486號","22.816","120.311"
"74DA38F20FB4","高雄市市立獅湖國小","高雄市獅湖國小 高雄市三民區鼎金後路495號","22.671","120.322"
"74DA38F7C486","新北市興華國小","N/A","25.203","121.501"
"74DA38F7C48C","新北市光榮國小","N/A","25.071","121.499"
"08BEAC0A034C","臺中市立東園國小","臺中市烏日區溪南路一段238巷198號","24.0837129589","120.639611185"
"74DA38F20D80","澎湖縣縣立馬公國小","[880]澎湖縣馬公市光明里明遠路2號","23.571","119.568"
"74DA38F2089C","宜蘭縣縣立過嶺國小","[263]宜蘭縣壯圍鄉過嶺村壯濱路三段261號","24.758","121.814"
"74DA38F20F22","高雄市市立龍肚國小","高雄市龍肚國小 高雄市美濃區龍東街43號","22.885","120.579"
"08BEAC0A02D8","臺中市立中山國小","臺中市東勢區泰昌里中泰街88號","24.25769279","120.8262096"
"74DA38F20BDE","高雄市市立大華國小","高雄市大華國小 高雄市鳥松區大華里大華路200號","22.653","120.34"
"08BEAC0A0266","嘉義縣縣立東榮國小","嘉義縣東石鄉永屯村39之2號","23.55756889","120.4349193"
"74DA38F20DC8","澎湖縣縣立西溪國小","[885]澎湖縣湖西鄉西溪村130號","23.582","119.641"
"74DA38F20A06","高雄市市立楠陽國小","高雄市楠陽國小 高雄市楠梓區楠陽路100號","22.725","120.33"
"74DA38F20A1A","新北市安溪國中","N/A","24.926","121.372"
"74DA38F208C4","宜蘭縣縣立北成國小","[265]宜蘭縣羅東鎮北成路一段125號","24.675","121.758"
"74DA38F20B0E","高雄市市立茂林國小","高雄市茂林國小 高雄市茂林區茂林里4-3號","22.886","120.664"
"74DA38F20B18","屏東縣縣立石門國小","[945]屏東縣牡丹鄉石門村石門路33號","22.125","120.771"
"74DA38F20B1A","高雄市市立鳳西國小","高雄市鳳西國小 高雄市鳳山區光華東路100號","22.617","120.358"
"74DA38F20B9A","苗栗縣縣立山佳國小","[350]苗栗縣竹南鎮山佳里龍山路三段39號","24.702","120.878"
"08BEAC2528B0","嘉義市市立僑平國小(2020)",,"23.484","120.432"
"74DA38F20DF4","新竹縣縣立石光國小","[306]新竹縣關西鎮石光里石岡子386號","24.813","121.128"
"74DA38F2109C","市立麗湖國小","臺北市內湖區金湖路363巷8號","25.072","121.601"
"74DA38F20B9E","苗栗縣縣立客庄國小","[358]苗栗縣苑裡鎮客庄里新興路21號","24.439","120.654"
"74DA38F20BA2","苗栗縣縣立大倫國中","[360]苗栗縣苗栗市玉清里育英街82號","24.569","120.83"
"08BEAC0A0700","臺南市市立白河國中","臺南市白河區昇安里三間厝220號","23.3625624813","120.424334072"
"08BEAC0A0008","臺中市立東勢國小","臺中市東勢區廣興里第五橫街1號","24.30930879","120.7905387"
"74DA38F20EC4","宜蘭縣縣立人文國(中)小","[261]宜蘭縣頭城鎮拔雅里文雅路150號","24.86","121.819"
"74DA38F20EB2","新竹縣縣立大坪國小","[314]新竹縣北埔鄉外坪村一鄰8號","24.675","121.059"
"74DA38F209DC","新竹縣縣立湖口國小","[303]新竹縣湖口鄉湖口村3鄰八德路二段182號","24.878","121.061"
"74DA38F20CD6","屏東縣縣立唐榮國小","[900]屏東縣屏東市崇禮里中山路41號","22.671","120.485"
"08BEAC0A0792","臺南市市立紅瓦厝國小","臺南市歸仁區信義南路100號","22.96278156","120.2984236"
"74DA38F2105A","台東縣縣立馬蘭國小","[950]臺東縣臺東市馬蘭里新社三街6號","22.765","121.135"
"74DA38F21126","宜蘭縣縣立南澳高中附設國中","[272]宜蘭縣南澳鄉蘇花路二段301號","24.465","121.801"
"74DA38F20ECA","屏東縣縣立林邊國中","[927]屏東縣林邊鄉光林村和平路43號","22.432","120.51"
"74DA38F20D26","市立長安國中","臺北市中山區興亞里松江路70巷11號","25.05","121.531"
"74DA38F7C63E","新北市三峽幼兒園","N/A","24.932","121.392"
"74DA38F210B0","高雄市市立忠義國小","高雄市忠義國小 高雄市大寮區忠義路1號","22.616","120.384"
"74DA38F21160","市立芝山國小","臺北市士林區芝山里德行東路285號","25.11","121.536"
"74DA38F20D3C","苗栗縣縣立竹南國中","[350]苗栗縣竹南鎮正南里中正路92號","24.685","120.875"
"74DA38F20D3E","苗栗縣縣立通霄國中","[357]苗栗縣通霄鎮中山路190巷1號","24.492","120.68"
"74DA38F20D5A","高雄市市立橋頭國中","高雄市立橋頭國民中學 高雄市橋頭區橋頭里新興路70號","25.062","121.451"
"74DA38F20D7A","高雄市市立忠孝國中","高雄市立忠孝國民中學 高雄市鳳山區國泰路二段81號","22.62","120.346"
"74DA38F20D96","澎湖縣縣立東衛國小","[880]澎湖縣馬公市東衛里169號","23.571","119.602"
"74DA38F20DAA","苗栗縣備品","苗栗縣","24.624","120.894"
"74DA38F2112E","市立清江國小","臺北市北投區奇岩里公館路220號","25.126","121.507"
"74DA38F208CC","宜蘭縣縣立羅東國小","[265]宜蘭縣羅東鎮民族路1號","24.673","121.772"
"08BEAC0A027C","臺中市立東勢國中","臺中市東勢區東崎路5段415號","24.257442","120.851617"
"74DA38F20CC0","屏東縣縣立大路關國(中)小","[906]屏東縣高樹鄉廣興村中正路176號","22.739","120.62"
"08BEAC0A025C","嘉義縣縣立大鄉國小","嘉義縣朴子市大鄉里560號","23.4535015","120.2614203"
"74DA38F21204","台東縣縣立嘉蘭國小","[964]台東縣金峰鄉嘉蘭村3鄰132號","25.062","121.451"
"74DA38F20E3C","高雄市市立南隆國中","高雄市立南隆國民中學 高雄市美濃區清水里南中街3號","22.866","120.534"
"74DA38C7CEB4","嘉義市立宣信國小","[600]嘉義市東區宣信街266號","23.47","120.459"
"74DA38F20E9A","新竹縣縣立上館國小","[310]新竹縣竹東鎮中豐路二段399號","24.73","121.089"
"74DA38F20EA6","新竹縣縣立富興國小","[315]新竹縣峨眉鄉富興村太平街8號","24.686","120.988"
"74DA38F20EAC","新竹縣縣立秀巒國小","[313]新竹縣尖石鄉秀巒村四鄰19號","24.618","121.285"
"74DA38F20EC0","宜蘭縣縣立慈心華德福實中附設國小","[269]宜蘭縣冬山鄉照安路257號","24.626","121.795"
"74DA38F20F14","高雄市市立鼓岩國小","高雄市鼓岩國小 高雄市鼓山區河邊街155號","22.64","120.282"
"08BEAC0A0828","臺南市市立光復生態實驗小學","臺南市七股區塩埕里塩埕1號","23.14965152","120.1067805"
"74DA38F20F1E","高雄市市立九如國小","高雄市九如國小 高雄市鼓山區九如四路763號","22.652","120.278"
"74DA38F20F40","屏東縣縣立新園國小","[932]屏東縣新園鄉新園村媽祖路49號","22.524","120.451"
"08BEAC0A0260","臺南市市立仙草國小","臺南市白河區仙草里22號","23.3450457167","120.473828875"
"08BEAC0A060A","臺南市市立安順國小","臺南市安南區安和路三段193號","23.0457703","120.2135861"
"74DA38F7C310","新北市忠義國小","N/A","25.09","121.464"
"08BEAC0A0738","臺南市市立成功國中","臺南市北區和緯路一段2號","22.98548962","120.2168919"
"74DA38F20ECE","屏東縣縣立佳冬國中","[931]屏東縣佳冬鄉玉光村大同路1號","22.428","120.566"
"74DA38F7C60E","市立新生國小","臺北市大安區新生南路二段36號","25.029","121.532"
"74DA38F2086E","台東縣縣立東海國小","[950]臺東縣臺東市長沙街329號","22.752","121.14"
"74DA38F7C43C","新北市義方國小","N/A","25.113","121.802"
"74DA38F7C52C","新北市金山幼兒園",,"25.221","121.631"
"74DA38F21052","高雄市市立勝利國小","高雄市勝利國小 高雄市左營區南屏路1號","22.671","120.295"
"74DA38F2102E","新竹縣縣立自強國中","[310]新竹縣竹東鎮自強路169號","24.745","121.084"
"08BEAC0A0778","臺南市市立開元國小","臺南市北區勝安里開元路71巷32號","23.0024229","120.2223212"
"08BEAC0A073A","桃園市市立東門國小","桃園市桃園區東門里東國街14號","24.9943521","121.3156019"
"08BEAC0A073E","嘉義縣縣立義竹國中","嘉義縣義竹鄉岸腳村59之2號","23.34162489","120.2508129"
"74DA38F2102C","新竹縣縣立博愛國中","[302]新竹縣竹北市縣政十三路81號","24.83","121.006"
"74DA38F21032","高雄市市立中壇國小","高雄市中壇國小 高雄市美濃區忠孝路一段19號","22.884","120.53"
"74DA38F2103A","新竹縣縣立東興國小","[302]新竹縣竹北市嘉豐十一路二段100號","24.804","121.032"
"74DA38F2104C","高雄市市立金山國小","高雄市金山國小 高雄市燕巢區金山里番田路29號","22.811","120.398"
"74DA38F210EA","苗栗縣錦水國小大坪分校","[352]苗栗縣三灣鄉大坪村4鄰大坪林42號","24.618","120.914"
"74DA38F210E6","高雄市市立杉林國中","高雄市立杉林國民中學 高雄市杉林區月眉里清水路中學巷6號","22.968","120.541"
"74DA38F210E8","新竹縣縣立新埔國小","[305]新竹縣新埔鎮中正路366號","24.828","121.08"
"74DA38F210EE","新竹縣縣立錦山國小","[306]新竹縣關西鎮金山里107號","24.768","121.225"
"74DA38F21112","澎湖縣縣立志清國中","[885]澎湖縣湖西鄉許家村1之1號","23.59","119.612"
"08BEAC09FF5C","臺中市立長億高中","臺中市太平區長億六街一號","24.113","120.722"
"74DA38F21122","宜蘭縣縣立壯圍國中","[263]宜蘭縣壯圍鄉富祥路588號","24.749","121.788"
"74DA38F211CA","屏東縣縣立大明國小","[911]屏東縣竹田鄉泗洲村洲中路40號","22.575","120.525"
"74DA38F211E4","屏東縣縣立佳佐國小-中興分校","[923]屏東縣萬巒鄉新置村中興路27號","25.062","121.451"
"74DA38F7C4B8","新北市土城國中","N/A","24.963","121.429"
"08BEAC0A0756","雲林縣縣立元長國小","雲林縣元長鄉長南村元西路七六號","23.6525047","120.3093506"
"74DA38F7C416","市立河堤國小","臺北市中正區汀州路二段180號","25.025","121.514"
"74DA38F7C38C","新北市雙城國小","N/A","24.952","121.486"
"08BEAC0A0448","臺中市立永春國小","臺中市南屯區永春東路288號","24.135","120.648"
"74DA38F7C372","新北市中和國中","N/A","24.984","121.508"
"74DA38F7C382","新北市永吉國小","N/A","24.958","121.332"
"08BEAC0A0472","臺南市市立文正國小","臺南市麻豆區南勢里86號","23.187","120.266"
"08BEAC0A036E","臺中市立惠文國小","臺中市南屯區公益路二段300號","24.1520526662","120.638278462"
"08BEAC0A0512","臺南市市立大港國小","臺南市北區大港街146號","23.0135245","120.1892436"
"08BEAC0A074A","桃園市市立東興國中","桃園市中壢區廣州路25號","24.93867333","121.2357916"
"08BEAC0A038C","臺南市市立永福國小","臺南市中西區永福路二段86號","22.9896089","120.2028601"
"74DA38F7C522","市立志清國小","臺北市文山區景仁里景福街21巷5號","24.998","121.538"
"74DA38F7C526","市立重慶國中","臺北市大同區重慶里敦煌路19號","25.077","121.505"
"74DA38F7C544","新北市萬里幼兒園","N/A","25.062","121.451"
"74DA38F7C54A","新北市瑞芳國中","N/A","25.122","121.86"
"08BEAC0A0422","雲林縣縣立育英國小","雲林縣北港鎮番溝里八四號","23.6222101","120.2787968"
"08BEAC0A0600","臺南市市立後壁國中","臺南市後壁區嘉苳里124之20號","23.35427256","120.3594755"
"74DA38B053A4","嘉義市立北興國中","[600]嘉義市東區仁義里博東路262號","23.491","120.454"
"08BEAC0A074E","嘉義縣縣立永慶高中附設國中","嘉義縣太保市信義二路1號","23.46697442","120.2953658"
"08BEAC0A041C","桃園市市立忠福國小","桃園市中壢區西園路57號","24.9764402","121.2347747"
"74DA38B0522C","嘉義市立民生國中","[600]嘉義市西區新民路601號","23.464","120.439"
"08BEAC0A0766","臺南市市立鎮海國小","臺南市安南區大眾路381號","23.0189541","120.1344721"
"74DA38F20814","宜蘭縣縣立冬山國中","[269]宜蘭縣冬山鄉南興村照安路26號","24.632","121.792"
"74DA38F20A58","屏東縣縣立公館國小","[900]屏東縣屏東市龍華里公華街182號","22.637","120.481"
"08BEAC0A03E8","桃園市市立芭里國小","桃園市中壢區啟文路233號","24.995","121.202"
"08BEAC0A03C2","臺南市市立仁和國小","臺南市仁德區仁愛里保仁路68號","22.96","120.222"
"08BEAC0A0838","臺南市市立關廟國中","臺南市關廟區中山路二段172號","22.961","120.324"
"74DA38F7C60C","市立健康國小","臺北市松山區延壽街168號","25.056","121.562"
"08BEAC0A03EE","桃園市市立福安國小","桃園市大溪區福安里十六鄰復興路一段755號","24.85","121.289"
"08BEAC0A0760","嘉義縣縣立十字國小","嘉義縣阿里山鄉十字村16號","23.492296","120.753933"
"08BEAC252BD8","澎湖縣縣立馬公國小(2020)",,"23.571","119.569"
"74DA38F21108","宜蘭縣縣立利澤國中","[268]宜蘭縣五結鄉成興村利寶路99號","24.665","121.829"
"08BEAC0A062E","雲林縣縣立東勢國中","雲林縣東勢鄉東榮路六五號","23.673","120.256"
"74DA38F20FC4","高雄市市立集來國小","高雄市集來國小 高雄市杉林區集來里通仙巷333號","23.022","120.561"
"74DA38F20CA6","台東縣縣立大南國小","[954]臺東縣卑南鄉東興村東園一街40號","22.764","121.043"
"08BEAC0A05CE","嘉義縣縣立重寮國小","嘉義縣鹿草鄉重寮村160號","23.39335375","120.3152826"
"74DA38F7C3D4","市立永安國小","臺北市中山區明水路397巷19弄1號","25.079","121.549"
"08BEAC0A06C8","嘉義縣縣立大湖國小","嘉義縣番路鄉大湖村下坪仔8號","23.47524445","120.6203878"
"08BEAC0A06AA","臺南市市立東區勝利國小","臺南市東區中西里勝利路10號","22.97162475","120.2263455"
"74DA38C7D616","新竹市立培英國中","[300]新竹市東區學府路4號","24.794","120.978"
"08BEAC2529F8","屏東縣縣立田子國小(2020)","[906]屏東縣高樹鄉鹽樹村公平路19號","22.804","120.577"
"08BEAC0A06CE","桃園市內壢高中","桃園市中壢區成章四街120號","24.97968166","121.251725"
"08BEAC0A0858","嘉義縣縣立社團國小","嘉義縣大林鎮三角里下林頭51號","23.6175211","120.4958474"
"08BEAC0A0868","臺南市市立新南國小","臺南市安平區怡平路6號","22.99096149","120.1958392"
"08BEAC0A08A4","臺南市市立楠西國小","臺南市楠西區楠西里四維路69號","23.17377873","120.4851111"
"74DA38F20CC4","屏東縣縣立海豐國小","[900]屏東縣屏東市三山里海豐街3號","22.698","120.507"
"74DA38F20F9A","新竹縣備品","新竹縣","24.733","121.093"
"74DA38F20FB6","高雄市市立博愛國小","高雄市博愛國小 高雄市三民區十全一路202號","22.645","120.307"
"74DA38F7C2A4","新北市佳林國中","N/A","25.08","121.384"
"74DA38F211EC","屏東縣縣立文樂國小","[922]屏東縣來義鄉文樂村新樂路1號","22.492","120.624"
"08BEAC0A0790","臺南市市立新市國中","臺南市新市區民族路76號","23.08365057","120.3007603"
"74DA38B053C2","嘉義私立輔仁高中","[600]嘉義市東區吳鳳南路270號","23.461","120.455"
"74DA38C7CEA0","嘉義市立港坪國小","[600]嘉義市四維路63號","23.479","120.424"
"74DA38C7CEB8","嘉義市立垂楊國小","[600]嘉義市西區垂楊路605號","23.472","120.438"
"74DA38C7D646","新竹市立建功國小","[300]新竹市東區建功一路104巷22號","24.8","120.999"
"74DA38C7D388","嘉義市立僑平國小","[600]嘉義市西區德安路10號","23.484","120.432"
"74DA38C7D492","金門縣立正義國小","[891]金門縣金湖鎮正義里成功129號","24.439","118.388"
"74DA38C7D51A","新竹市立茄苳國小","[300]新竹市香山區茄苳里茄苳路70號","24.755","120.945"
"74DA38C7D51C","新竹市立朝山國小","[300]新竹市香山區中華路五段648巷126號","24.765","120.913"
"74DA38C7D604","新竹市立科園國小","[300]新竹市東區科學園路171號","24.781","121.012"
"74DA38C7D612","新竹市立光華國中","[300]新竹市北區光華北街10號","24.819","120.973"
"74DA38C7D618","新竹華德福實驗學校","[300]新竹市香山區中華路6段331巷168號","24.741","120.913"
"74DA38EBF88C","花蓮縣立玉東國中","[981]花蓮縣玉里鎮松浦里松浦39號","23.417","121.37"
"74DA38ED0454","花蓮縣立佳民國小","[972]花蓮縣秀林鄉佳民村119號","24.053","121.599"
"08BEAC09FF5E","臺中市立豐田國小","臺中市豐原區田心路二段290號","24.23750147","120.7218282"
"74DA38F208D4","宜蘭縣縣立士敏國小","[270]宜蘭縣蘇澳鎮光明路8號","24.592","121.853"
"74DA38F208DE","宜蘭縣縣立中山國小","[260]宜蘭縣宜蘭市崇聖街4號","24.753","121.755"
"74DA38F208E4","宜蘭縣縣立新生國小","[260]宜蘭縣宜蘭市大坡路一段100號","24.77","121.754"
"74DA38F208EE","苗栗縣縣立山腳國小","[358]苗栗縣苑裡鎮舊社里10鄰47號","24.417","120.685"
"74DA38F208F2","苗栗縣縣立建中國小","[367]苗栗縣三義鄉廣盛村廣盛80號","24.413","120.769"
"74DA38F208FC","苗栗縣縣立僑成國小","[367]苗栗縣三義鄉勝興村廿份220號","24.401","120.765"
"74DA38F20904","苗栗縣縣立林森國小","[358]苗栗縣苑裡鎮水坡里70號","24.438","120.679"
"74DA38F20908","苗栗縣縣立公館國小","[363]苗栗縣公館鄉館中村大同路15號","24.499","120.827"
"74DA38F20910","苗栗縣縣立啟明國小","[357]苗栗縣通霄鎮內島里二鄰15號","24.559","120.709"
"74DA38F20938","新竹縣縣立芎林國中","[307]新竹縣芎林鄉新鳳村74號","24.761","121.092"
"74DA38F2093C","新竹縣縣立峨眉國中","[315]新竹縣峨眉鄉峨眉街十鄰54號","25.062","121.451"
"74DA38F20948","新竹縣縣立竹東國中","[310]新竹縣竹東鎮公園路8號","24.735","121.086"
"74DA38F20952","新竹縣縣立鳳岡國中","[302]新竹縣竹北市大義里鳳岡路三段100號","24.864","120.965"
"74DA38F20960","新竹縣縣立石光國中","[306]新竹縣關西鎮石光里308巷44號","24.814","121.129"
"74DA38F20964","苗栗縣縣立文峰國小","[366]苗栗縣銅鑼鄉樟樹村12之1號","24.464","120.785"
"08BEAC0A0060","臺中市立清海國中","臺中市清水區中央路51之60號","24.27624814","120.5535381"
"08BEAC252CDA","EPA備品(2020)",,"24.995","121.305"
"74DA38F209C4","屏東縣縣立惠農國小","[904]屏東縣九如鄉東寧村新庄路1號","22.724","120.498"
"74DA38F20A8C","屏東縣縣立崇蘭國小","[900]屏東縣屏東市廣東路1259號","22.64","120.292"
"74DA38F20A74","屏東縣縣立泰安國小","[912]屏東縣內埔鄉老埤村壽比路116號","22.63","120.594"
"74DA38F20A76","屏東縣縣立墾丁國小-鵝鑾分校","[946]屏東縣恆春鎮砂島路216號","21.913","120.848"
"74DA38F20A82","苗栗縣縣立僑樂國小","[361]苗栗縣造橋鄉錦水村十二鄰306號","24.603","120.886"
"74DA38F20A92","屏東縣縣立潮昇國小","[920]屏東縣潮州鎮北門路25號","22.557","120.547"
"74DA38F20A8A","屏東縣縣立三多國小","[904]屏東縣九如鄉三塊村三民路307號","22.748","120.485"
"08BEAC0A00E0","臺南市市立新東國小","臺南市後壁區仕安里81號","23.34510512","120.3162232"
"08BEAC0A011C","臺中市立石城國小","臺中市東勢區茂興里石城街182巷26號","24.26330288","120.829574"
"08BEAC0A012A","臺中市立大德國小","臺中市梧棲區大村里文昌路343號","24.24307506","120.5425892"
"74DA38F209E0","台東縣縣立北源國小","[959]臺東縣東河鄉北源村順那21號","23.039","121.292"
"74DA38F20B52","基隆市立八斗高中附設國中","[202]基隆市中正區新豐街100號","25.14","121.788"
"74DA38F20B28","高雄市市立橋頭國小","高雄市橋頭國小 高雄市橋頭區橋頭里樹德路200號","22.761","120.305"
"74DA38F20B34","宜蘭縣縣立武塔國小","[272]宜蘭縣南澳鄉武塔村新溪路1號","24.445","121.778"
"74DA38F20B56","苗栗縣縣立福星國小","[360]苗栗縣苗栗市中華東街62號","24.579","120.826"
"74DA38F20B5A","市立玉成國小","臺北市南港區西新里向陽路31號","25.055","121.603"
"74DA38F20B60","高雄市市立圓潭國小","高雄市圓潭國小 高雄市旗山區旗甲路三段179號","22.933","120.503"
"74DA38F20B72","苗栗縣縣立仁愛國小","[363]苗栗縣公館鄉中村仁愛路二段123號","24.505","120.825"
"08BEAC0A0242","臺中市立南屯國小","臺中市南屯區南屯區黎明路一段968號","24.1366745","120.6376493"
"74DA38F20C2C","高雄市市立民權國小","高雄市民權國小 高雄市那瑪夏區瑪雅里平和巷220號","23.248","120.702"
"74DA38F20C38","苗栗縣縣立文英國中","[351]苗栗縣頭份市尖下里200號","24.655","120.88"
"74DA38F20C3A","苗栗縣縣立維真國中","[356]苗栗縣後龍鎮大庄里中山路252號","24.612","120.794"
"74DA38F20C3C","苗栗縣縣立大湖國中","[364]苗栗縣大湖鄉靜湖村民族路80號","24.426","120.871"
"74DA38F20C40","苗栗縣縣立獅潭國中","[354]苗栗縣獅潭鄉新店村21號","24.544","120.922"
"74DA38F20C42","苗栗縣縣立建國國中","[351]苗栗縣頭份市成功里建國路119號","24.695","120.909"
"74DA38F20C4A","苗栗縣縣立文林國中","[366]苗栗縣銅鑼鄉朝陽村文化街12號","24.489","120.789"
"74DA38F20C4E","苗栗縣縣立烏眉國中","[357]苗栗縣通霄鎮內湖里1鄰5-1號","24.506","120.716"
"74DA38F20C98","新竹縣縣立新城國小","[308]新竹縣寶山鄉寶新路二段475號","24.733","120.967"
"74DA38F20CA0","新竹縣縣立埔和國小","[304]新竹縣新豐鄉埔和村466號","24.921","120.982"
"74DA38F20CCC","屏東縣縣立萬丹國小竹林分校","[913]屏東縣萬丹鄉竹林村竹林路351號","22.606","120.511"
"74DA38F20CD4","屏東縣縣立民和國小","[900]屏東縣屏東市自立路213號","22.67","120.495"
"74DA38F20CDA","屏東縣縣立建國國小","[900]屏東縣屏東市萬年里建興路36號","25.062","121.451"
"74DA38F20CDE","屏東縣縣立麟洛國中","[909]屏東縣麟洛鄉中山路2號","22.641","120.536"
"74DA38F20CEC","屏東縣縣立力社國小","[924]屏東縣崁頂鄉力社村力社路36號","22.538","120.509"
"74DA38F20CF8","屏東縣縣立昌隆國小","[931]屏東縣佳冬鄉昌隆村中正路44號","22.409","120.586"
"74DA38F20D5E","高雄市市立燕巢國中","高雄市立燕巢國民中學 高雄市燕巢區南燕里中興路267號","22.786","120.362"
"74DA38F20D62","高雄市市立大洲國中","高雄市立大洲國民中學 高市旗山區新光里新南巷5號","22.835","120.46"
"74DA38F20D64","高雄市市立圓富國中","高雄市立圓富國民中學 高雄市旗山區圓富里旗甲路二段609號","22.928","120.501"
"74DA38F20D66","高雄市市立旗山國中","高雄市立旗山國民中學 高雄市旗山區大德里中學路42號","22.881","120.48"
"74DA38F20D68","高雄市市立一甲國中","高雄市立一甲國民中學 高雄市路竹區甲南里一甲路111號","22.868","120.272"
"74DA38F20DEE","高雄市市立美濃國小","高雄市美濃國小 高雄市美濃區泰安里第五鄰永安路190號","22.9","120.542"
"74DA38F20DF8","新竹縣縣立太平國小","[306]新竹縣關西鎮東平里五鄰27號","24.826","121.119"
"74DA38F20DFA","新竹縣縣立寶石國小","[305]新竹縣新埔鎮寶石里九鄰關埔路內立段672號","24.816","121.078"
"74DA38F20DE8","高雄市市立東門國小","高雄市東門國小 高雄市美濃區民族路36巷2號","22.899","120.553"
"74DA38F20E10","新竹縣縣立竹東國小","[310]新竹縣竹東鎮康寧街1號","24.735","121.088"
"74DA38F20E14","新竹縣縣立關西國小","[306]新竹縣關西鎮西安里中山路126號","24.791","121.174"
"74DA38F20E1A","高雄市市立桃源國中","高雄市立桃源國民中學 高雄市桃源區勤和里南橫公路三段201號","23.178","120.781"
"74DA38F20E48","宜蘭縣縣立大隱國小","[264]宜蘭縣員山鄉湖東村蜊埤路55號","24.747","121.69"
"74DA38F20E4A","宜蘭縣縣立萬富國小","[266]宜蘭縣三星鄉萬富村健富路一段309號","24.679","121.688"
"74DA38F20E4E","宜蘭縣縣立武塔國小","[266]宜蘭縣三星鄉大隱中路347號","24.668","121.713"
"74DA38F20E50","宜蘭縣縣立碧候國小","[272]宜蘭縣南澳鄉碧候村自覺巷38號","24.474","121.785"
"74DA38F20E5A","宜蘭縣縣立四季國小","[267]宜蘭縣大同鄉四季村和勳巷1號","24.488","121.426"
"74DA38F20E5E","苗栗縣縣立溪洲國小","[356]苗栗縣後龍鎮溪洲里87之3號","24.62","120.777"
"74DA38F20E62","苗栗縣縣立大山國小","[356]苗栗縣後龍鎮灣寶里7鄰109號","24.645","120.809"
"74DA38F20EEE","屏東縣縣立萬巒國中","[923]屏東縣萬巒鄉萬和村褒忠路5號","22.571","120.573"
"74DA38F20EF0","屏東縣縣立光春國中","[920]屏東縣潮州鎮光春路290號","22.534","120.539"
"74DA38F20EF4","屏東縣縣立新埤國中","[925]屏東縣新埤鄉建功路190號","22.483","120.565"
"74DA38F20F04","高雄市市立小港國小","高雄市小港國小 高雄市小港區平和路1號","22.561","120.336"
"74DA38F20F10","高雄市市立吉東國小","高雄市吉東國小 高雄市美濃區吉東里吉頂19號","22.853","120.546"
"08BEAC0A0328","臺南市市立善糖國小","臺南市善化區溪美里245號","23.15327802","120.2885613"
"08BEAC0A0332","嘉義縣縣立柳溝國小","嘉義縣溪口鄉柳溝村南靖厝5號","23.57717224","120.4143791"
"74DA38F211AC","市立天母國小","臺北市士林區天玉里天玉街12號","25.138","121.505"
"08BEAC0A0662","雲林縣縣立崙背國中","雲林縣崙背鄉大成路九一號","23.757","120.349"
"08BEAC0A0802","臺南市市立小新國小","臺南市善化區小新里97之3號","23.125","120.311"
"74DA38F20FC6","高雄市市立忠孝國小","高雄市忠孝國小 高雄市鳳山區新富路630號","22.617","120.349"
"74DA38F20FCA","高雄市市立三民國小","高雄市三民國小 高雄市三民區建國三路216號","22.636","120.291"
"74DA38F20FD8","澎湖縣縣立吉貝國小","[884]澎湖縣白沙鄉吉貝村8號","23.741","119.614"
"74DA38F20FC8","高雄市市立鼎金國小","高雄市鼎金國小 高雄市三民區鼎山街375號","22.656","120.321"
"74DA38F20FE0","屏東縣縣立萬隆國小","[925]屏東縣新埤鄉萬隆村中山路126號","22.507","120.587"
"74DA38F20FE2","高雄市市立深水國小","高雄市深水國小 高雄市燕巢區深水里深中路2號","22.777","120.405"
"74DA38F20FE4","高雄市市立崇德國小","高雄市崇德國小 高雄市田寮區崇德里崇德路101號","22.877","120.379"
"74DA38F21010","高雄市市立一甲國小","高雄市一甲國小 高雄市路竹區甲南里大智路43號","22.875","120.269"
"74DA38F21094","市立劍潭國小","臺北市士林區明勝里通河街16號","25.075","121.519"
"74DA38F21090","市立百齡國小","臺北市士林區福中里福港街205號","25.086","121.518"
"74DA38F210A4","市立富安國小","臺北市士林區富洲里延平北路8段135號","25.105","121.482"
"74DA38F210C6","屏東縣縣立玉田國小","[905]屏東縣里港鄉玉田村八德路91號","22.773","120.49"
"74DA38F210C8","屏東縣縣立塔樓國小","[905]屏東縣里港鄉塔樓村塔樓路21之3號","22.765","120.483"
"08BEAC0A03A8","臺中市立大雅國中","臺中市大雅區大雅里20鄰學府路280號","24.224","120.651"
"74DA38F210E4","高雄市市立那瑪夏國中","高雄市立那瑪夏國民中學 高雄市那瑪夏區瑪雅里平和巷171號","23.24","120.696"
"08BEAC0A0486","桃園市市立自強國中","桃園市中壢區榮民路80號","24.97058499","121.2578816"
"08BEAC0A0498","雲林縣縣立潮厝國小","雲林縣褒忠鄉潮厝村九六號","23.72087717","120.3384286"
"08BEAC0A04AE","臺南市市立永信國小","臺南市永康區復華7街166號","23.24726992","120.3697958"
"08BEAC0A043A","桃園市市立信義國小","桃園市中壢區信義里成都路55號","24.951","121.232"
"08BEAC252C26","花蓮縣縣立宜昌國小(2020)",,"23.971","121.586"
"74DA38F7C260","新北市泰山國中",,"25.065","121.425"
"08BEAC0A0536","臺南市市立麻豆國小","臺南市麻豆區東角里文昌路18號","23.18594305","120.2534818"
"74DA38F21142","高雄市成功特殊教育學校","成功特殊教育學校","22.605","120.302"
"74DA38F21156","高雄市市立田寮國中","高雄市立田寮國民中學 高雄市田寮區南安里崗安路48號","22.862","120.36"
"74DA38F21164","台東縣縣立關山國中","[956]臺東縣關山鎮崁頂路22號","23.045","121.159"
"74DA38F21154","高雄市市立誠正國小","高雄市誠正國小 高雄市鳳山區黃埔新村國校巷78號","22.616","120.364"
"74DA38F21056","台東縣縣立豐榮國小","[950]臺東縣臺東市中華路二段154巷150號","22.747","121.136"
"08BEAC0A0660","雲林縣縣立宏仁國小","雲林縣水林鄉灣東村宏仁路三十號","23.604","120.241"
"08BEAC0A0576","臺南市市立安慶國小","臺南市安南區安中路一段703巷80號","23.040813","120.192245"
"08BEAC0A062C","雲林縣縣立鎮西國小","雲林縣斗六市中和里西平路三號","23.707","120.538"
"74DA38F7C3DE","新北市中正國小","N/A","24.972","121.537"
"08BEAC0A060E","桃園市市立錦興國小","桃園市蘆竹區南竹路一段100號","25.046729913","121.289672367"
"08BEAC0A0650","臺南市市立進學國小","臺南市中西區南寧街47號","22.9848253603","120.203317031"
"08BEAC0A069C","雲林縣縣立虎尾國小","雲林縣虎尾鎮明正路八八號","23.71365542","120.4315878"
"08BEAC0A0618","臺南市市立復興國中","臺南市東區裕文路62號","22.975","120.241"
"74DA38F7C56C","新北市中信國小","N/A","25.056","121.448"
"74DA38F7C5C4","市立忠孝國小","臺北市中正區梅花里忠孝東路2段101號","25.043","121.53"
"74DA38F20E92","新竹縣縣立錦屏國小","[313]新竹縣尖石鄉錦屏村十鄰116號","24.68","121.246"
"08BEAC0A07A4","桃園市市立觀音國小","桃園市觀音區觀音里四鄰文化路2號","25.03522523","121.0825945"
"08BEAC0A07C8","嘉義縣縣立灣潭國小","嘉義縣中埔鄉灣潭村下庄1之1號","23.42742063","120.5562522"
"08BEAC0A07D2","桃園市市立南崁國小","桃園市蘆竹區羊稠里吉林路160號","25.04983253","121.3009644"
"74DA38F20E80","苗栗縣縣立華興國小","[364]苗栗縣大湖鄉富興村水尾2號","24.443","120.874"
"08BEAC0A0882","桃園市市立中壢國中","桃園市平鎮區延平路一段115號","24.95050077","121.2191201"
"74DA38F20E26","高雄市市立湖內國中","高雄市立湖內國民中學 高雄市湖內區中山路二段63號","22.907","120.227"
"74DA38C7D628","新竹市立龍山國小","[300]新竹市東區光復路一段574號","24.79","121.007"
"08BEAC252D1A","EPA備品(2020)",,"25.043","121.512"
"08BEAC252D08","EPA備品(2020)",,"25.043","121.512"
"08BEAC252D0E","EPA備品(2020)",,"25.043","121.512"
"08BEAC245DBA","嘉義市市立南興國中(2020)",,"23.468","120.461"
"08BEAC245C30","新竹市立民富國小(2020)",,"24.808","120.96"
"08BEAC245CB2","新竹市立竹蓮國小(2020)",,"25.062","121.451"
"08BEAC245C72","新竹市立建功國小(2020)",,"24.8","120.999"
"08BEAC245EA4","新竹縣縣立花園國小(2020)",,"24.648","121.151"
"08BEAC252CF6","新竹縣縣立瑞興國小(2020)",,"24.911","121.009"
"08BEAC2528EE","新竹縣縣立石光國小(2020)",,"24.813","121.128"
"08BEAC245B48","新竹縣縣立關西國中(2020)",,"24.798","121.173"
"08BEAC2529A8","花蓮縣縣立佳民國小(2020)",,"24.053","121.599"
"08BEAC245EE0","花蓮縣縣立北埔國小(2020)",,"24.032","121.605"
"08BEAC252B4C","宜蘭縣縣立四季國小(2020)",,"24.488","121.426"
"08BEAC252930","宜蘭縣縣立大福國小(2020)",,"24.802","121.814"
"08BEAC245E16","宜蘭縣縣立新南國小(2020)",,"24.722","121.799"
"08BEAC0A0478","桃園市市立樂善國小","桃園市龜山區樂善里11鄰樂安街71號","25.052","121.383"
"08BEAC245B64","高雄市市立陽明國小(2020)",,"22.645862","120.3356102"
"08BEAC245C10","高雄市市立河濱國小(2020)",,"22.6340374","120.2876089"
"08BEAC245B14","高雄市市立河堤國小(2020)",,"22.6633765","120.3147641"
"08BEAC245BC4","高雄市市立東光國小(2020)",,"22.648689","120.3389918"
"08BEAC245C1C","高雄市市立光武國小(2020)",,"22.6391324","120.3343446"
"08BEAC245C3E","高雄市市立民族國小(2020)",,"22.6433398","120.320907"
"08BEAC245C20","高雄市市立獅湖國小(2020)",,"22.6728053","120.3224585"
"08BEAC245B84","高雄市市立博愛國小(2020)",,"22.6440149","120.3136156"
"08BEAC245C32","高雄市市立正興國小(2020)",,"22.6460304","120.3268726"
"08BEAC245C5C","高雄市市立十全國小(2020)",,"22.6469384","120.298399"
"08BEAC245C22","高雄市市立愛國國小(2020)",,"22.6456683","120.3076092"
"08BEAC245C6E","高雄市市立鼎金國小(2020)",,"22.6563759","120.3215668"
"08BEAC245C3C","高雄市市立三民國小(2020)",,"22.6370723","120.2910329"
"08BEAC245C76","高雄市市立三民國中(2020)",,"22.6465015","120.3071181"
"08BEAC245B32","高雄市市立正興國中(2020)",,"22.6442908","120.3202943"
"08BEAC245BC6","高雄市市立民族國中(2020)",,"22.6401165","120.333085"
"08BEAC245B78","高雄市市立陽明國中(2020)",,"22.6438665","120.3405291"
"08BEAC245B3C","高雄市市立鼎金國中(2020)",,"22.6549371","120.3213808"
"08BEAC245BDC","高雄市市立嘉誠國小(2020)",,"22.748683","120.3804228"
"08BEAC245B7E","高雄市市立大社國小(2020)",,"22.7303663","120.3458307"
"08BEAC245CDC","高雄市市立觀音國小(2020)",,"22.723","120.355"
"08BEAC245C2A","高雄市市立大社國中(2020)",,"22.7292129","120.3569815"
"08BEAC245BE0","高雄市市立大寮國小(2020)",,"22.5907296","120.4164449"
"08BEAC245B8E","高雄市市立中庄國小(2020)",,"22.6347497","120.3975644"
"08BEAC245BE4","高雄市市立溪寮國小(2020)",,"22.6304988","120.4205589"
"08BEAC245C60","高雄市市立昭明國小(2020)",,"22.5420329","120.4087741"
"08BEAC245C6C","高雄市市立潮寮國小(2020)",,"22.5649486","120.4249374"
"08BEAC245C88","高雄市市立忠義國小(2020)",,"22.6163369","120.384137"
"08BEAC245B86","高雄市市立永芳國小(2020)",,"22.6057177","120.3949006"
"08BEAC245B82","高雄市市立翁園國小(2020)",,"22.6226804","120.4073284"
"08BEAC245B8A","高雄市市立山頂國小(2020)",,"22.6074201","120.3890244"
"08BEAC245BBC","高雄市市立大寮國中(2020)",,"22.603023","120.392837"
"08BEAC245B2E","高雄市市立中庄國中(2020)",,"22.6364473","120.4010948"
"08BEAC245B72","高雄市市立潮寮國中(2020)",,"22.5640467","120.4245553"
"08BEAC245B36","高雄市市立龍目國小(2020)",,"22.688642","120.4086391"
"08BEAC245B38","高雄市市立興田國小(2020)",,"22.7407723","120.4460026"
"08BEAC245B3A","高雄市市立小坪國小(2020)",,"22.6817728","120.4125816"
"08BEAC245B3E","高雄市市立水寮國小(2020)",,"22.6681429","120.4074293"
"08BEAC245AE2","高雄市市立大樹國小(2020)",,"22.6881327","120.4344131"
"08BEAC245BAC","高雄市市立姑山國小(2020)",,"22.7088699","120.4381834"
"08BEAC245AE4","高雄市市立九曲國小(2020)",,"22.6559746","120.4233958"
"08BEAC245BB2","高雄市市立溪埔國小(2020)",,"22.7229212","120.4429677"
"08BEAC245BB4","高雄市市立大樹國中(2020)",,"22.6572509","120.4228963"
"08BEAC245B30","高雄市市立溪埔國中(2020)",,"22.7193987","120.4430104"
"08BEAC245C66","高雄市市立後庄國小(2020)",,"22.637744","120.3891956"
"08BEAC245C6A","高雄市市立漢民國小(2020)",,"22.5659028","120.3591621"
"08BEAC245C5A","高雄市市立港和國小(2020)",,"22.5680941","120.3372446"
"08BEAC245CE2","高雄市市立華山國小(2020)",,"22.5673865","120.3657753"
"08BEAC245CB8","高雄市市立鳳林國小(2020)",,"22.5264269","120.3428097"
"08BEAC245CC8","高雄市市立青山國小(2020)",,"22.5727943","120.3605926"
"08BEAC245CC4","高雄市市立太平國小(2020)",,"22.571","120.371"
"08BEAC245CCA","高雄市市立鳳鳴國小(2020)",,"22.5150041","120.3576157"
"08BEAC245CA4","高雄市市立坪頂國小(2020)",,"22.5609299","120.3916588"
"08BEAC245CA6","高雄市市立二苓國小(2020)",,"22.56408554","120.3532052"
"08BEAC245CCE","高雄市市立桂林國小(2020)",,"22.5825273","120.3499117"
"08BEAC245CCC","高雄市市立小港國小(2020)",,"22.5610965","120.3352842"
"08BEAC245CC6","高雄市市立明義國小(2020)",,"22.5830967","120.3669563"
"08BEAC245C9C","高雄市市立鳳陽國小(2020)",,"22.5614016","120.369911"
"08BEAC245C92","高雄市市立小港國中(2020)",,"22.566193","120.3380444"
"08BEAC245C16","高雄市市立中山國中(2020)",,"22.566","120.356"
"08BEAC245BEA","高雄市市立明義國中(2020)",,"22.5823122","120.3686076"
"08BEAC245BCE","高雄市市立鳳林國中(2020)",,"22.5215761","120.3483537"
"08BEAC245BC2","高雄市市立灣內國小(2020)",,"22.683","120.357"
"08BEAC245C1A","高雄市市立八卦國小(2020)",,"22.689018","120.3331695"
"08BEAC245BF4","高雄市市立烏林國小(2020)",,"22.6979106","120.3731883"
"08BEAC245C12","高雄市市立仁武國小(2020)",,"22.7012292","120.3490898"
"08BEAC245C06","高雄市市立竹後國小(2020)",,"22.7103668","120.3342854"
"08BEAC245B9E","高雄市市立登發國小(2020)",,"22.6796705","120.3540167"
"08BEAC245BE2","高雄市市立大灣國中(2020)",,"22.676115","120.3421677"
"08BEAC245B9A","高雄市市立仁武高中(2020)",,"22.7026333","120.3562432"
"08BEAC245BD8","高雄市仁武特殊教育學校(2020)",,"22.6835673","120.3460913"
"08BEAC245B98","高雄市市立溝坪國小(2020)",,"22.9933386","120.5011577"
"08BEAC245B96","高雄市市立金竹國小(2020)",,"23.0091625","120.5143064"
"08BEAC245B12","高雄市市立景義國小(2020)",,"22.9561512","120.4940365"
"08BEAC245B24","高雄市市立木柵國小(2020)",,"22.9755876","120.4678688"
"08BEAC245ADA","高雄市市立西門國小(2020)",,"22.9200628","120.4304827"
"08BEAC245C18","高雄市市立內門國小(2020)",,"22.9393039","120.4608607"
"08BEAC245B06","高雄市市立觀亭國小(2020)",,"22.9174058","120.4533055"
"08BEAC245BDA","高雄市市立內門國中(2020)",,"22.9219067","120.453494"
"08BEAC245F08","高雄市市立新威國小(2020)",,"22.8979735","120.6273456"
"08BEAC245E58","高雄市市立寶來國小(2020)",,"23.1089012","120.7009215"
"08BEAC252876","高雄市市立龍興國小(2020)",,"22.9935693","120.6448576"
"08BEAC245F78","高雄市市立新發國小(2020)",,"23.031921","120.6624133"
"08BEAC245E26","高雄市市立荖濃國小(2020)",,"23.0731681","120.6723209"
"08BEAC245F5C","高雄市市立六龜國小(2020)",,"22.9962623","120.6343319"
"08BEAC245EF0","高雄市市立寶來國中(2020)",,"23.1094115","120.7035345"
"08BEAC245E1E","高雄市市立六龜高中(2020)",,"22.9933422","120.6350063"
"08BEAC245F06","高雄市市立新光國小(2020)",,"22.6793914","120.3040572"
"08BEAC245F76","高雄市市立福山國小(2020)",,"22.683","120.317"
"08BEAC245F6C","高雄市市立文府國小(2020)",,"22.6920489","120.3150112"
"08BEAC245F0C","高雄市市立屏山國小(2020)",,"22.6943324","120.3015195"
"08BEAC245EFA","高雄市市立永清國小(2020)",,"22.6746823","120.2887982"
"08BEAC252A88","高雄市市立新上國小(2020)",,"22.6568779","120.3106517"
"08BEAC245E2C","高雄市市立新莊國小(2020)",,"22.6700833","120.3093921"
"08BEAC245FF8","高雄市市立新民國小(2020)",,"22.6765363","120.3136243"
"08BEAC246004","高雄市市立明德國小(2020)",,"22.6881978","120.2902751"
"08BEAC245DD0","高雄市市立勝利國小(2020)",,"22.6723229","120.295326"
"08BEAC245FF4","高雄市市立左營國小(2020)",,"22.690837","120.2932775"
"08BEAC245FE4","高雄市市立舊城國小(2020)",,"22.6835125","120.2929225"
"08BEAC2528F0","高雄市市立大義國中(2020)",,"22.6748773","120.2925385"
"08BEAC245FAC","高雄市市立文府國中(2020)",,"22.6919211","120.3164503"
"08BEAC2528E4","高雄市市立左營國中(2020)",,"22.6790953","120.3065815"
"08BEAC2528DA","高雄市市立立德國中(2020)",,"22.6898397","120.2912434"
"08BEAC252AA0","高雄市市立福山國中(2020)",,"22.6811422","120.3146997"
"08BEAC245D4A","高雄市市立龍華國中(2020)",,"22.6582717","120.3087043"
"08BEAC245D2A","高雄市市立新港國小(2020)",,"22.8215494","120.2088984"
"08BEAC2528D8","高雄市市立永安國小(2020)",,"22.8150756","120.2250882"
"08BEAC245D66","高雄市市立維新國小(2020)",,"22.8040115","120.2476489"
"08BEAC245D26","高雄市市立永安國中(2020)",,"22.8231717","120.240145"
"08BEAC245D12","高雄市市立崇德國小(2020)",,"22.8779686","120.3794227"
"09BEAC245F9A","高雄市市立新興國小(2020)",,"22.626","120.304"
"08BEAC245F48","高雄市市立田寮國中(2020)",,"22.86293","120.3606947"
"08BEAC245FDA","高雄市市立小林國小(2020)",,"23.1484245","120.6326368"
"08BEAC245F94","高雄市市立寶隆國小(2020)",,"23.0493563","120.5553413"
"08BEAC245F7A","高雄市市立甲仙國小(2020)",,"23.0813426","120.5890386"
"08BEAC245F30","高雄市市立甲仙國中(2020)",,"23.0811963","120.5919584"
"08BEAC245F4E","高雄市市立集來國小(2020)",,"23.0222975","120.561539"
"08BEAC245F42","高雄市市立杉林國小(2020)",,"22.9979671","120.5477765"
"08BEAC245F8A","高雄市市立月美國小(2020)",,"22.9584137","120.5356573"
"08BEAC245D9E","高雄市市立上平國小(2020)",,"22.9770439","120.5439956"
"08BEAC245F1A","高雄市市立新庄國小(2020)",,"22.9890964","120.5598162"
"08BEAC245FA6","高雄市市立民族大愛國小(2020)",,"22.9649149","120.5394869"
"08BEAC2529F0","高雄市市立杉林國中(2020)",,"22.9685447","120.5408658"
"08BEAC2529EA","高雄市市立民權國小(2020)",,"23.2484978","120.7027673"
"08BEAC245D80","高雄市市立民生國小(2020)",,"23.2759753","120.7212121"
"08BEAC245D84","高雄市市立那瑪夏國中(2020)",,"23.24014","120.6967709"
"08BEAC252BD6","高雄市市立壽天國小(2020)",,"22.7991635","120.2924077"
"08BEAC252BD4","高雄市市立兆湘國小(2020)",,"22.7852816","120.2873312"
"08BEAC252BC6","高雄市市立嘉興國小(2020)",,"22.8215363","120.3054264"
"08BEAC252BA2","高雄市市立和平國小(2020)",,"22.7818864","120.303827"
"08BEAC252BC4","高雄市市立後紅國小(2020)",,"22.7929382","120.3034687"
"08BEAC252BAA","高雄市市立前峰國小(2020)",,"22.7917408","120.2825941"
"08BEAC252BB4","高雄市市立岡山國小(2020)",,"22.7913687","120.2936041"
"08BEAC252BCE","高雄市市立竹圍國小(2020)",,"22.8030005","120.3028168"
"08BEAC252BEA","高雄市市立岡山國中(2020)",,"22.7911503","120.3031993"
"08BEAC252B92","高雄市市立前峰國中(2020)",,"22.7888777","120.2885793"
"08BEAC252B9C","高雄市市立嘉興國中(2020)",,"22.8162365","120.3119846"
"08BEAC252BD2","高雄市市立王公國小(2020)",,"22.5047053","120.3881851"
"08BEAC252BC8","高雄市市立林園國小(2020)",,"22.507","120.392"
"08BEAC245E38","高雄市市立中芸國小(2020)",,"22.48741354","120.3961967"
"08BEAC25288C","高雄市市立港埔國小(2020)",,"22.5043812","120.3784896"
"08BEAC252884","高雄市市立金潭國小(2020)",,"22.527718","120.3968756"
"08BEAC252894","高雄市市立汕尾國小(2020)",,"22.4789341","120.4110877"
"08BEAC25288A","高雄市市立中芸國中(2020)",,"22.4858387","120.3953163"
"08BEAC245E42","高雄市市立林園高中(2020)",,"22.5138847","120.3945479"
"08BEAC25288E","高雄市市立阿蓮國小(2020)",,"22.8833084","120.3298256"
"08BEAC252896","高雄市市立復安國小(2020)",,"22.8491312","120.3240385"
"08BEAC245E3E","高雄市市立中路國小(2020)",,"22.8949405","120.2989211"
"08BEAC25287C","高雄市市立阿蓮國中(2020)",,"22.885353","120.3260501"
"08BEAC245E3A","高雄市市立前金國小(2020)",,"22.6262301","120.2940001"
"08BEAC252898","高雄市市立建國國小(2020)",,"22.6325897","120.2977126"
"08BEAC2528A0","高雄市市立前金國中(2020)",,"22.6299846","120.2895512"
"08BEAC25289C","高雄市市立紅毛港國小(2020)",,"22.5835904","120.3342611"
"08BEAC252886","高雄市市立佛公國小(2020)",,"22.5733122","120.3201336"
"08BEAC252A1E","高雄市市立民權國小(2020)",,"22.6084577","120.3144189"
"08BEAC252A14","高雄市市立瑞祥國小(2020)",,"22.6002391","120.3271547"
"08BEAC252A78","高雄市市立鎮昌國小(2020)",,"22.5905473","120.3177396"
"08BEAC252A52","高雄市市立光華國小(2020)",,"22.6151102","120.3202919"
"08BEAC245E24","高雄市市立前鎮國小(2020)",,"22.5864144","120.3087638"
"08BEAC245E5E","高雄市市立獅甲國小(2020)",,"22.606","120.306"
"08BEAC252A5A","高雄市市立仁愛國小(2020)",,"22.581","120.317"
"08BEAC245E22","高雄市市立樂群國小(2020)",,"22.6081364","120.3228954"
"08BEAC245E5C","高雄市市立愛群國小(2020)",,"22.6139884","120.3126246"
"08BEAC245E78","高雄市市立復興國小(2020)",,"22.6084036","120.3115907"
"08BEAC252A66","高雄市市立瑞豐國小(2020)",,"22.6066708","120.3369632"
"08BEAC245E20","高雄市市立明正國小(2020)",,"22.5802527","120.3268636"
"08BEAC245E60","高雄市市立明義國中-含中安分校(2020)",,"22.585299","120.3339061"
"08BEAC245E32","高雄市市立光華國中(2020)",,"22.6112717","120.3226542"
"08BEAC245E56","高雄市市立前鎮國中(2020)",,"22.5823552","120.32129"
"08BEAC245E36","高雄市市立獅甲國中(2020)",,"22.6056777","120.3087141"
"08BEAC25287A","高雄市市立瑞豐國中(2020)",,"22.6099193","120.3311561"
"08BEAC252890","高雄市市立興仁國中(2020)",,"22.5860947","120.3134969"
"08BEAC245E2A","高雄市市立瑞祥高中(2020)",,"22.6009929","120.3247438"
"08BEAC245E28","高雄市成功特殊教育學校(2020)",,"22.6061509","120.3019672"
"08BEAC245E40","高雄市市立東門國小(2020)",,"22.9000887","120.553357"
"08BEAC252880","高雄市市立吉洋國小(2020)",,"22.8614498","120.5208309"
"08BEAC245F18","高雄市市立美濃國小(2020)",,"22.9002771","120.5429908"
"08BEAC245F26","高雄市市立龍山國小(2020)",,"22.8646578","120.5561405"
"08BEAC245F2A","高雄市市立廣興國小(2020)",,"22.9175417","120.5677779"
"08BEAC245FBC","高雄市市立中壇國小(2020)",,"22.8838893","120.530478"
"08BEAC245F36","高雄市市立龍肚國小(2020)",,"22.8857784","120.5799535"
"08BEAC245FC8","高雄市市立吉東國小(2020)",,"22.8533744","120.5464391"
"08BEAC245F1E","高雄市市立福安國小(2020)",,"22.8974835","120.5192956"
"08BEAC245FA8","高雄市市立南隆國中(2020)",,"22.8665257","120.534611"
"08BEAC252C8C","高雄市市立美濃國中(2020)",,"22.89393148","120.5430986"
"08BEAC245D0E","高雄市市立龍肚國中(2020)",,"22.878968","120.5710169"
"08BEAC252C1A","高雄市市立四維國小(2020)",,"22.6230475","120.3129233"
"08BEAC252C16","高雄市市立凱旋國小(2020)",,"22.6364713","120.3202402"
"8BEAC245D6C","高雄市市立五權國小(2020)",,"22.62","120.323"
"08BEAC252C82","高雄市市立福康國小(2020)",,"22.6186265","120.3291455"
"08BEAC252C0E","高雄市市立中正國小(2020)",,"22.6296746","120.3336966"
"08BEAC245D78","高雄市市立福東國小(2020)",,"22.6242707","120.3279574"
"08BEAC252BF6","高雄市市立苓洲國小(2020)",,"22.6155467","120.3000864"
"08BEAC252BFC","高雄市市立大仁國中(2020)",,"22.6333275","120.3296205"
"08BEAC252BFA","高雄市市立五福國中(2020)",,"22.6290964","120.3171225"
"08BEAC252C00","高雄市市立苓雅國中(2020)",,"22.6187381","120.3059339"
"08BEAC252C04","高雄市市立英明國中(2020)",,"22.6150464","120.3246817"
"08BEAC2529BC","高雄市市立中正高中(2020)",,"22.6264899","120.3389567"
"08BEAC252C06","高雄市市立高雄特殊學校(2020)",,"22.6352921","120.3222386"
"08BEAC252BE6","高雄市市立多納國小(2020)",,"22.9102091","120.7163268"
"08BEAC252BFE","高雄市市立茂林國小(2020)",,"22.8862841","120.6643093"
"08BEAC252BE2","高雄市市立茂林國中(2020)",,"22.885072","120.6640603"
"08BEAC252BE4","高雄市市立茄萣國小(2020)",,"22.903349","120.1816979"
"08BEAC252BDC","高雄市市立砂崙國小(2020)",,"22.9133117","120.1823806"
"08BEAC252BDE","高雄市市立成功國小(2020)",,"22.8884711","120.1857023"
"08BEAC245D06","高雄市市立興達國小(2020)",,"22.8759829","120.1963596"
"08BEAC252BDA","高雄市市立茄萣國中(2020)",,"22.9068846","120.181036"
"08BEAC245D60","高雄市市立寶山國小(2020)",,"23.0553722","120.7220446"
"08BEAC252BEC","高雄市市立樟山國小(2020)",,"23.2523521","120.819408"
"08BEAC252BF0","高雄市市立桃源國小(2020)",,"23.1603599","120.7659428"
"08BEAC252BEE","高雄市市立建山國小(2020)",,"23.1047891","120.6829784"
"08BEAC245D88","高雄市市立興中國小(2020)",,"23.1282619","120.7188988"
"08BEAC252A0A","高雄市市立桃源國中(2020)",,"23.1788696","120.7809114"
"08BEAC252AD4","高雄市市立梓官國小(2020)",,"22.7597854","120.2645266"
"08BEAC245CFA","高雄市市立蚵寮國小(2020)",,"22.7333538","120.2482474"
"08BEAC252B88","高雄市市立梓官國中(2020)",,"22.7625144","120.2634985"
"08BEAC252AE8","高雄市市立蚵寮國中(2020)",,"22.7289026","120.2591494"
"08BEAC252B1A","高雄市市立鳥松國小(2020)",,"22.6632893","120.3615723"
"08BEAC245D20","高雄市市立大華國小(2020)",,"22.6537237","120.340667"
"08BEAC252B1C","高雄市市立仁美國小(2020)",,"22.6584977","120.3941611"
"08BEAC252AEC","高雄市市立鳥松國中(2020)",,"22.6666572","120.3713641"
"08BEAC252B26","高雄市市立文山高中(2020)",,"22.6479994","120.3533533"
"08BEAC252B12","高雄市市立三侯國小(2020)",,"22.9111258","120.1986935"
"08BEAC252810","高雄市市立大湖國小(2020)",,"22.8878005","120.2446311"
"08BEAC252B20","高雄市市立海埔國小(2020)",,"22.8955594","120.2254485"
"08BEAC252C7A","高雄市市立文賢國小(2020)",,"22.907943","120.2132547"
"08BEAC245D16","高雄市市立明宗國小(2020)",,"22.9064324","120.222625"
"08BEAC252B62","高雄市市立湖內國中(2020)",,"22.9077486","120.2272766"
"08BEAC245D00","高雄市市立新興國小(2020)",,"22.6265027","120.3048091"
"08BEAC252BBA","高雄市市立大同國小(2020)",,"22.6273423","120.2988165"
"08BEAC252BBC","高雄市市立信義國小(2020)",,"22.6316012","120.3109334"
"08BEAC252B28","高雄市市立七賢國小(2020)",,"22.6340807","120.3069499"
"08BEAC252BA6","高雄市市立新興高中(2020)",,"22.6254072","120.3038828"
"08BEAC245BAA","高雄市市立翠屏國中小(2020)",,"22.7287323","120.2992951"
"08BEAC252C66","高雄市市立楠梓國小(2020)",,"22.7339466","120.3295717"
"08BEAC245CF0","高雄市市立援中國小(2020)",,"22.7281998","120.2779305"
"08BEAC252BB0","高雄市市立後勁國小(2020)",,"22.7216418","120.3139463"
"08BEAC252ACE","高雄市市立莒光國小(2020)",,"22.711879","120.2956648"
"08BEAC252BB2","高雄市市立右昌國小(2020)",,"22.7146159","120.2917087"
"08BEAC252AD6","高雄市市立楠陽國小(2020)",,"22.7246732","120.3309889"
"08BEAC252B78","高雄市市立加昌國小(2020)",,"22.7207232","120.2971655"
"08BEAC252B70","高雄市市立油廠國小(2020)",,"22.7082758","120.3033673"
"08BEAC252B76","高雄市市立右昌國中(2020)",,"22.7138931","120.2865921"
"08BEAC252AB6","高雄市市立國昌國中(2020)",,"22.7197233","120.285324"
"08BEAC252AE0","高雄市市立楠梓國中(2020)",,"22.7354958","120.3272551"
"08BEAC252AB4","高雄市國立中山大學附屬國光中學(2020)",,"22.70865","120.3049757"
"08BEAC252AAE","高雄市楠梓特殊學校(2020)",,"22.7281463","120.3134616"
"08BEAC245EAC","高雄市市立蔡文國小(2020)",,"22.8614127","120.2560421"
"08BEAC252ACA","高雄市市立大社國小(2020)",,"22.8671677","120.2652087"
"08BEAC252834","高雄市市立路竹國小(2020)",,"22.8567413","120.2600167"
"08BEAC252ABA","高雄市市立下坑國小(2020)",,"22.8693722","120.2907201"
"08BEAC252ACC","高雄市市立竹滬國小(2020)",,"22.8624401","120.230325"
"08BEAC252AF6","高雄市市立三埤國小(2020)",,"22.8367499","120.2803531"
"8BEAC25283E","高雄市市立北嶺國小(2020)",,"22.823","120.269"
"08BEAC252AC8","高雄市市立一甲國小(2020)",,"22.8746941","120.2696687"
"08BEAC252AEE","高雄市市立一甲國中(2020)",,"22.8690504","120.2720378"
"08BEAC25282C","高雄市市立路竹高中(2020)",,"22.8549728","120.2522642"
"08BEAC252AF0","高雄市市立九如國小(2020)",,"22.652","120.278"
"08BEAC252B3A","高雄市市立龍華國小(2020)",,"22.6553671","120.2983769"
"08BEAC252B3E","高雄市市立壽山國小(2020)",,"22.6326833","120.2798576"
"08BEAC252B5A","高雄市市立中山國小(2020)",,"22.6570374","120.2889605"
"08BEAC252B90","高雄市市立內惟國小(2020)",,"22.6567842","120.276055"
"08BEAC252ABE","高雄市市立鼓岩國小(2020)",,"22.6398982","120.282802"
"08BEAC252B40","高雄市市立鼓山國小(2020)",,"22.6241743","120.2711857"
"08BEAC252B34","高雄市市立七賢國中(2020)",,"22.6581266","120.2894542"
"08BEAC25283C","高雄市市立明華國中(2020)",,"22.6616346","120.3010775"
"08BEAC245E98","高雄市市立壽山國中(2020)",,"22.6333194","120.2784622"
"08BEAC245E9A","高雄市市立鼓山高中(2020)",,"22.6519804","120.2758317"
"08BEAC245DE0","高雄市市立旗山國小(2020)",,"22.8886199","120.4808789"
"08BEAC252B42","高雄市市立旗尾國小(2020)",,"22.8822789","120.4921117"
"08BEAC245DE6","高雄市市立圓潭國小(2020)",,"22.9335906","120.5036907"
"08BEAC252822","高雄市市立嶺口國小(2020)",,"22.7761192","120.4492795"
"08BEAC252AEA","高雄市市立鼓山國小(2020)",,"22.8986928","120.4824446"
"08BEAC245DD2","高雄市市立溪洲國小(2020)",,"22.8477309","120.4651232"
"08BEAC252812","高雄市市立大洲國中(2020)",,"22.8352874","120.4606399"
"08BEAC245DCE","高雄市市立圓富國中(2020)",,"22.928472","120.5005931"
"08BEAC245DDE","高雄市市立旗山國中(2020)",,"22.8809094","120.4810891"
"08BEAC245DD4","高雄市市立大汕國小(2020)",,"22.5878404","120.2875409"
"08BEAC246006","高雄市市立旗津國小(2020)",,"22.6082952","120.2710399"
"08BEAC245E1A","高雄市市立中洲國小(2020)",,"22.5773252","120.2944814"
"08BEAC24600A","高雄市市立旗津國中(2020)",,"22.5886471","120.2868239"
"08BEAC252AD8","高雄市市立中崙國小(2020)",,"22.59975815","120.3489075"
"08BEAC252AE6","高雄市市立過埤國小(2020)",,"22.5914928","120.3618047"
"08BEAC252AD0","高雄市市立文華國小(2020)",,"22.6347989","120.352813"
"08BEAC252AC2","高雄市市立鳳翔國小(2020)",,"22.5955849","120.3408755"
"08BEAC252ADC","高雄市市立忠孝國小(2020)",,"22.6174452","120.3497854"
"08BEAC245DD6","高雄市市立中山國小(2020)",,"22.6307986","120.3501864"
"08BEAC252BB8","高雄市市立新甲國小(2020)",,"22.612695","120.3400182"
"08BEAC252C84","高雄市市立文山國小(2020)",,"22.634909","120.3610256"
"08BEAC252C9A","高雄市市立中正國小(2020)",,"22.6281066","120.3738645"
"08BEAC252C8E","高雄市市立鳳山國小(2020)",,"22.6246482","120.3562733"
"08BEAC252C92","高雄市市立正義國小(2020)",,"22.6039322","120.3400405"
"08BEAC252BE0","高雄市市立大東國小(2020)",,"22.6238916","120.362717"
"08BEAC245D24","高雄市市立福誠國小(2020)",,"22.5968255","120.3250157"
"08BEAC252CAA","高雄市市立誠正國小(2020)",,"22.6167374","120.3641239"
"08BEAC252C18","高雄市市立南成國小(2020)",,"22.5943731","120.3354498"
"08BEAC252C88","高雄市市立瑞興國小(2020)",,"22.6301347","120.3681908"
"08BEAC252C96","高雄市市立五甲國小(2020)",,"22.5980217","120.3346759"
"08BEAC252C78","高雄市市立曹公國小(2020)",,"22.6274594","120.3575565"
"08BEAC252C86","高雄市市立文德國小(2020)",,"22.6405062","120.353898"
"08BEAC252C1E","高雄市市立五福國小(2020)",,"22.5894124","120.3259895"
"08BEAC252C76","高雄市市立鳳西國小(2020)",,"22.617","120.358"
"08BEAC252C7C","高雄市市立鎮北國小(2020)",,"22.6430447","120.3677779"
"08BEAC252C6E","高雄市市立中崙國中(2020)",,"22.60353","120.3533749"
"08BEAC252AB8","高雄市市立五甲國中(2020)",,"22.5981532","120.3286648"
"08BEAC245DCC","高雄市市立忠孝國中(2020)",,"22.6199174","120.346567"
"08BEAC252AB0","高雄市市立青年國中(2020)",,"22.6309088","120.3488597"
"08BEAC252B48","高雄市市立鳳山國中(2020)",,"22.6254688","120.3719051"
"08BEAC252B4A","高雄市市立鳳甲國中(2020)",,"22.6165706","120.3425208"
"08BEAC252B58","高雄市市立鳳西國中(2020)",,"22.62086486","120.3533176"
"08BEAC252AC6","高雄市市立鳳翔國中(2020)",,"22.5965677","120.3479925"
"08BEAC252B8E","高雄市市立福誠高中(2020)",,"22.5904235","120.3235985"
"08BEAC245DE2","高雄市市立橋頭國小(2020)",,"22.7614312","120.3052367"
"08BEAC252B4E","高雄市市立燕巢國小(2020)",,"22.7952866","120.365988"
"08BEAC252B52","高雄市市立興糖國小(2020)",,"22.7505897","120.316897"
"08BEAC252B02","高雄市市立甲圍國小(2020)",,"22.7351181","120.2946804"
"08BEAC252B30","高雄市市立仕隆國小(2020)",,"22.7510897","120.3117246"
"08BEAC252B46","高雄市市立五林國小(2020)",,"22.7601866","120.2932426"
"08BEAC252B80","高雄市市立橋頭國中(2020)",,"22.7598296","120.3074146"
"08BEAC245AF0","高雄市市立橫山國小(2020)",,"22.7683103","120.3794543"
"08BEAC245D08","高雄市市立金山國小(2020)",,"22.8116965","120.39799"
"08BEAC245CFC","高雄市市立鳳雄國小(2020)",,"22.7532324","120.3582107"
"08BEAC252C98","高雄市市立安招國小(2020)",,"22.7910755","120.337853"
"08BEAC252CA4","高雄市市立深水國小(2020)",,"22.7771337","120.4052261"
"08BEAC252C9C","高雄市市立燕巢國中(2020)",,"22.7861422","120.3628416"
"08BEAC252C54","高雄市市立彌陀國小(2020)",,"22.7834404","120.2478232"
"08BEAC252C5A","高雄市市立南安國小(2020)",,"22.7637893","120.2435092"
"08BEAC252CA2","高雄市市立壽齡國小(2020)",,"22.7953471","120.2348699"
"08BEAC252C58","高雄市市立彌陀國中(2020)",,"22.7764491","120.245832"
"08BEAC245D0C","高雄市市立鹽埕國小(2020)",,"22.6233206","120.2826052"
"08BEAC245D02","高雄市市立忠孝國小(2020)",,"22.6218453","120.2851672"
"08BEAC245D1E","高雄市市立光榮國小(2020)",,"22.6232291","120.2870959"
"08BEAC252C94","高雄市市立鹽埕國中(2020)",,"22.622792","120.2881993"
"08BEAC245D86","高雄市市立後勁國中(2020)",,"22.7228342","120.3156364"
"08BEAC252BCA","高雄市市立陽明國中(2020)",,"22.6434337","120.3404853"
"08BEAC25295A","金門縣縣立正義國小(2020)",,"24.439","118.388"
"08BEAC245D22","金門縣縣立金湖國中(2020)",,"24.437","118.421"
"08BEAC245C34","苗栗縣立五穀國小(2020)",,"24.5209314","120.8224789"
"08BEAC245ABA","苗栗縣立五湖國小(2020)",,"24.522","120.776"
"08BEAC245AC0","苗栗縣立坪林國小(2020)",,"24.335","120.876"
"08BEAC245AEC","苗栗縣立雙連國小(2020)",,"24.337","120.848"
"08BEAC245AF8","苗栗縣立景山國小(2020)",,"24.352","120.865"
"08BEAC245AAA","苗栗縣立苗栗國中(2020)",,"25.062","121.451"
"08BEAC245F32","澎湖縣縣立大池國小(2020)",,"23.614","119.513"
"08BEAC252A9A","澎湖縣縣立五德國小(2020)",,"23.528","119.591"
"08BEAC252A60","屏東縣縣立賽嘉國小(2020)",,"22.743","120.64"
"08BEAC252A02","屏東縣縣立文樂國小(2020)",,"22.4930611","120.6239038"
"08BEAC252BCC","屏東縣縣立仁和國小(2020)",,"22.437","120.511"
"08BEAC2528E0","屏東縣縣立復興國小(2020)",,"22.659","120.486"
"08BEAC252982","屏東縣縣立信義國小(2020)",,"22.685","120.492"
"74DA38F20E3E","高雄市市立龍肚國中","高雄市立龍肚國民中學 高雄市美濃區龍山里中華路68號","22.878","120.57"
"74DA38F20E46","高雄市市立英明國中","高雄市立英明國民中學 高雄市苓雅區林貴里英明路147號","22.614","120.324"
"74DA38F20E44","高雄市市立五福國中","高雄市立五福國民中學 高雄市苓雅區尚義里五福一路12號","22.629","120.317"
"74DA38F20E00","高雄市市立阿蓮國中","高雄市立阿蓮國民中學 高雄市阿蓮區阿蓮里民生路178號","22.885","120.325"
"08BEAC0A03BC","雲林縣縣立林中國小","雲林縣林內鄉林中村公園路四號","23.755","120.615"
"08BEAC0A039C","臺中市立外埔國中","臺中市外埔區大同里外埔路999號","24.332","120.649"
"74DA38C7D46C","嘉義市立文雅國小","[600]嘉義市東區盧厝里11鄰文雅街2號","23.483","120.487"
"08BEAC0A07EA","嘉義縣縣立菁埔國小","嘉義縣民雄鄉菁埔村130之3號","23.558","120.397"
"08BEAC252ADA","花蓮縣縣立豐裡國小(2020)",,"23.842","121.508"
"08BEAC252ADE","新竹縣縣立六家高級中學附設國中(2020)",,"24.82","121.033"
"74DA38C7CEA8","嘉義市立精忠國小","[600]嘉義市東區林森東路840號","23.491","120.479"
"08BEAC0A0752","桃園市市立奎輝國小","桃園市復興區奎輝里三鄰25號","24.797","121.335"
"08BEAC0A06F0","桃園市市立社子國小","桃園市新屋區社子里社福路235號","24.957","121.082"
"08BEAC0A06CC","桃園市市立內壢國中","桃園市中壢區復華里復華一街108號","24.971","121.249"
"08BEAC252D02","花蓮縣縣立中原國小(2020)",,"23.971","121.596"
"08BEAC0A0310","雲林縣縣立雲林國中","雲林縣斗六市明德路五九九號","23.7","120.533"
"08BEAC0A0640","臺南市市立信義國小","臺南市佳里區忠仁里信義一街336號","23.16","120.182"
"08BEAC0A063A","嘉義縣縣立大同國小","嘉義縣朴子市大同路239號","23.461","120.24"
"08BEAC0A0652","雲林縣縣立頂湖國小","雲林縣口湖鄉頂湖村一二一號","23.6","120.179"
"74DA38ED04BE","花蓮縣立光華國小","[973]花蓮縣吉安鄉光華村光華二街180號","23.935","121.578"
"08BEAC245DA6","嘉義市市立文雅國小(2020)",,"23.484","120.488"
"08BEAC0A0872","臺南市市立文山國小","臺南市北門區文山里4鄰溪底寮50號","23.241","120.126"
"08BEAC252D0A","花蓮縣縣立玉東國中(2020)",,"23.417","121.371"
"08BEAC252D06","花蓮縣縣立奇美國小(2020)",,"23.497","121.446"
"08BEAC252D04","花蓮縣縣立國風國中(2020)",,"23.978","121.595"
"08BEAC252CFA","新竹縣縣立新埔國中(2020)",,"24.829","121.071"
"08BEAC252CFE","EPA備品(2020)",,"24.748","121.746"
"08BEAC252CE8","宜蘭縣縣立大里國小(2020)",,"24.936","121.887"
"08BEAC252B2C","EPA備品(2020)",,"25.043","121.512"
"08BEAC0A0774","臺南市市立保西國小","臺南市歸仁區媽廟里中正北路三段60號","22.992","120.294"
"08BEAC0A071C","臺南市市立安定區南興國小","臺南市安定區六嘉里30號","23.099","120.225"
"74DA38F21146","高雄市仁武特殊教育學校","仁武特殊教育學校","22.683","120.346"
"74DA38F2107A","市立福林國小","臺北市士林區福志里福志路75號","25.096","121.529"
"74DA38F209B8","台東縣縣立尚武國小","[965]臺東縣大武鄉尚武村八鄰學府路7號","22.34","120.888"
"08BEAC245D4E","花蓮縣縣立萬榮國小(2020)",,"23.715","121.411"
"08BEAC0A061E","嘉義縣縣立溪口國中","嘉義縣溪口鄉坪頂村中正東路103號","23.604","120.394"
"08BEAC0A061A","臺南市市立西埔國小","臺南市南化區西埔里117號","23.046","120.446"
"08BEAC0A0616","臺南市市立東山國中","臺南市東山區東中里青葉路一段132號","23.317","120.403"
"08BEAC0A05FE","桃園市市立新屋國小","桃園市新屋區新生里中正路196號","24.973","121.102"
"08BEAC2528F4","宜蘭縣縣立冬山國中(2020)",,"24.632","121.792"
"74DA38ED0610","花蓮縣立北埔國小","[971]花蓮縣新城鄉北埔路170號","24.032","121.605"
"08BEAC0A0578","臺南市市立西港國小","臺南市西港區進學街60號","23.123","120.2"
"74DA38F20C54","高雄市市立嘉興國小","高雄市嘉興國小 高雄市岡山區嘉興里嘉興路322號","22.821","120.305"
"74DA38F20B5C","高雄市市立壽天國小","高雄市壽天國小 高雄市岡山區岡山鎮公園東路55號","22.798","120.293"
"74DA38F20A4A","屏東縣縣立萬丹國小","[913]屏東縣萬丹鄉寶厝村萬新路1497號","22.582","120.488"
"74DA38F2094E","新竹縣縣立精華國中","[304]新竹縣新豐鄉後湖村八鄰166號","24.926","121.018"
"08BEAC0A052E","臺南市市立官田國小","臺南市官田區官田里11號","23.189","120.342"
"08BEAC252D18","花蓮縣縣立德武國小(2020)",,"23.466","121.406"
"74DA38C7D166","金門縣立開瑄國小","[891]金門縣金湖鎮瓊林里中興崗9-1號","24.445","118.377"
"08BEAC252CC8","花蓮縣縣立三民國小(2020)",,"23.43","121.348"
"08BEAC252CB4","EPA備品(2020)",,"24.565","120.82"
"08BEAC0A087C","臺南市市立龍潭國小","臺南市永康區龍潭街214號","23.034","120.268"
"08BEAC0A0878","桃園市市立光明國小","桃園市蘆竹區南興里三鄰南昌路255號","25.041","121.291"
"08BEAC252C0A","嘉義市私立輔仁高中(2020)",,"23.461","120.456"
"08BEAC252B94","花蓮縣縣立新城國中(2020)",,"24.126","121.653"
"08BEAC252B8A","花蓮縣縣立水璉國小(2020)",,"23.782","121.563"
"08BEAC0A07E8","嘉義縣縣立秀林國小","嘉義縣民雄鄉北斗村北勢仔17號","23.534","120.457"
"08BEAC252A6E","屏東縣縣立全德國小(2020)","[929]屏東縣琉球鄉杉福村復興路97號","22.346","120.369"
"08BEAC252A6C","EPA備品(2020)",,"24.382","120.759"
"08BEAC252A4E","EPA備品(2020)",,"22.673","120.488"
"08BEAC252A28","屏東縣縣立來義國小(2020)","[922]屏東縣來義鄉丹林村古義路2號","22.528","120.65"
"08BEAC252A10","屏東縣縣立三多國小(2020)","[904]屏東縣九如鄉三塊村三民路307號","22.749","120.485"
"08BEAC252A22","屏東縣縣立以栗國小(2020)","[928]屏東縣東港鎮船頭里船頭路25號","22.462","120.461"
"08BEAC2529B8","金門縣縣立金鼎國小(2020)","[892]金門縣金寧鄉盤山村下堡123號","24.448","118.337"
"08BEAC2529AC","新竹縣縣立湖口高中附設國中(2020)",,"24.89","121.054"
"74DA38F2106C","高雄市市立小林國小","高雄市小林國小 高雄市甲仙區小林里五里路24之2號","23.148","120.632"
"74DA38F20F4A","市立胡適國小","臺北市南港區中研里舊莊街1段1號","25.042","121.617"
"74DA38F20CCE","屏東縣國立屏東大學實小","[900]屏東縣屏東市長春里廣東路20號","22.669","120.498"
"74DA38F20D4E","新竹縣縣立中正國小","[302]新竹縣竹北市竹北村中山路190號","24.836","121.019"
"74DA38F20BE4","新竹縣縣立長安國小","[303]新竹縣湖口鄉長安村長春路50號","24.791","120.957"
"08BEAC0A038E","桃園市市立過嶺國中","桃園市中壢區松智路2號","24.96","121.175"
"08BEAC0A035C","臺中市立土牛國小","臺中市石岡區土牛里豐勢路308號","24.266","120.809"
"08BEAC252CAC","新竹縣縣立六家國小(2020)",,"24.814","121.025"
"08BEAC252B68","EPA備品(2020)",,"23.712","120.545"
"08BEAC252B22","EPA備品(2020)",,"25.046","121.508"
"08BEAC252B56","新竹縣縣立東興國中(2020)",,"24.811","121.03"
"08BEAC252AE4","宜蘭縣縣立三星國中(2020)",,"24.668","121.654"
"08BEAC252AE2","宜蘭縣縣立南山國小(2020)",,"24.437","121.381"
"08BEAC252956","屏東縣縣立萬巒國中(2020)","[923]屏東縣萬巒鄉萬和村褒忠路5號","22.571","120.575"
"08BEAC252984","宜蘭縣縣立新生國小(2020)",,"24.771","121.754"
"74DA38B053B8","嘉義崇仁醫護管理專科學校","[600]嘉義市盧厝里紅毛埤217號","23.62","120.459"
"08BEAC252C5C","EPA備品(2020)",,"24.806","120.972"
"74DA38F7C64A","新北市柑園國小",,"24.955","121.39"
"74DA38F7C632","新北市中湖國小",,"24.973","121.348"
"74DA38F7C630","新北市建國國小",,"24.954","121.346"
"74DA38F7C634","新北市二橋國小",,"24.941","121.336"
"74DA38F7C63A","新北市大同國小",,"24.981","121.417"
"08BEAC252BC2","新竹縣縣立北埔國中(2020)",,"24.704","121.048"
"08BEAC252B6E","EPA備品(2020)",,"23.465","120.441"
"08BEAC252B72","宜蘭縣縣立澳花國小(2020)",,"24.329","121.74"
"08BEAC252D14","花蓮縣縣立長良國小(2020)",,"23.285","121.286"
"08BEAC252B6C","EPA備品(2020)",,"23.712","120.545"
"08BEAC252918","花蓮縣縣立太平國小(2020)",,"23.406","121.32"
"08BEAC0A058A","嘉義縣縣立大崎國小","嘉義縣民雄鄉秀林村林仔尾66號","23.512","120.472"
"08BEAC0A055C","嘉義縣縣立新港國小","嘉義縣新港鄉福德村登雲路105號","23.556","120.345"
"08BEAC0A0588","桃園市市立瑞原國小","桃園市楊梅區民安路1號","24.926","121.104"
"08BEAC0A0572","雲林縣縣立文光國小","雲林縣口湖鄉梧南村文光路一○○號","23.542","120.19"
"08BEAC0A0556","桃園市市立上田國小","桃園市楊梅區上田里九鄰98號","24.938","121.127"
"08BEAC0A03B4","臺南市市立文賢國中","臺南市北區文賢一路2號","23.006","120.197"
"08BEAC0A03C0","臺南市市立德高國小","臺南市東區崇善路1155號","22.963","120.236"
"08BEAC0A03AE","臺中市立忠信國小","臺中市西區林森路155號","24.139","120.669"
"08BEAC0A03DA","嘉義縣縣立社口國小","嘉義縣中埔鄉隆興村二鄰8號","23.439","120.539"
"08BEAC0A039E","桃園市市立西門國小","桃園市桃園區莒光街15號","24.98","121.302"
"08BEAC0A03CC","臺南市市立省躬國小","臺南市南區灣裡路70號","22.932","120.18"
"74DA38F207F6","高雄市市立文山國小","高雄市文山國小 高雄市鳳山區鳳松路25巷20號","22.634","120.359"
"74DA38ED04A8","花蓮縣立豐山國小","[974]花蓮縣壽豐鄉豐山村中山路41號","23.846","121.491"
"08BEAC252944","屏東縣縣立東港高中附設國中(2020)","[928]屏東縣東港鎮船頭路1號","22.466","120.456"
"08BEAC2528D2","新竹縣縣立秀巒國小田埔分校(2020)",,"24.641","121.279"
"08BEAC252900","屏東縣縣立獅子國中(2020)","[941]屏東縣枋山鄉楓港村舊庄280號","22.205","120.701"
"08BEAC2528CE","宜蘭縣縣立宜蘭國小(2020)",,"24.753","121.755"
"74DA38F20E0A","高雄市市立中芸國中","高雄市立中芸國民中學 高雄市林園區中芸里中芸路3-100號","22.485","120.395"
"08BEAC2528B2","嘉義市市立民生國中(2020)",,"23.464","120.44"
"08BEAC0A056A","雲林縣縣立蔦松國小","雲林縣水林鄉松中村蔦松路二一三號","23.514","120.23"
"08BEAC0A054C","臺南市市立大橋國中","臺南市永康區東橋十街1號","23.02","120.227"
"08BEAC0A052A","臺南市市立麻豆國中","臺南市麻豆區南勢里36號","23.183","120.26"
"74DA38C7D64A","新竹市立水源國小","[300]新竹市東區仰德路11號","24.811","121.002"
"74DA38F20B8A","高雄市市立旗尾國小","高雄市旗尾國小 高雄市旗山區延平二路19號","22.882","120.492"
"74DA38F20C22","高雄市市立大社國中","高雄市立大社國民中學 高雄市大社區神農里翠屏路100號","22.729","120.357"
"74DA38F20BBE","高雄市市立五福國小","高雄市五福國小 高雄市鳳山區五福里福德街145號","22.589","120.325"
"74DA38F20BBA","高雄市市立旗津國小","高雄市旗津國小 高雄市旗津區中洲三路623號","22.608","120.271"
"08BEAC245F84","屏東縣縣立竹田國中(2020)","[911]屏東縣竹田鄉西勢村龍門路26號","22.616","120.523"
"08BEAC252CF8","花蓮縣縣立中城國小(2020)",,"23.325","121.318"
"08BEAC252CD4","花蓮縣縣立舞鶴國小(2020)",,"23.46","121.352"
"74DA38F7C642","市立大佳國小","臺北市中山區大佳里6鄰濱江街107號","25.074","121.535"
"74DA38F7C612","市立銘傳國小","臺北市大安區農場里羅斯褔路四段21號","25.014","121.535"
"74DA38F7C610","市立三民國小","臺北市松山區莊敬里民權東路五段1號","25.063","121.564"
"08BEAC245F82","屏東縣縣立水泉國小(2020)","[946]屏東縣恆春鎮水泉里頂泉路1號","21.941","120.732"
"08BEAC0A08B0","嘉義縣東榮國中","嘉義縣東石鄉永屯村39-2號","23.462","120.173"
"08BEAC0A07F4","桃園市市立后厝國小","桃園市大園區國際路二段147號","25.081","121.215"
"08BEAC0A07BA","臺南市市立那拔國小","臺南市新化區那拔里54號","23.068","120.35"
"74DA38F20FDE","屏東縣縣立大成國小","[925]屏東縣新埤鄉打鐵村東興路33號","22.495","120.55"
"08BEAC2529BE","屏東縣縣立潮和國小(2020)","[920]屏東縣潮州鎮三和里華巖街1號","22.557","120.538"
"08BEAC2529A6","宜蘭縣龍潭國小匏崙分校(2020)",,"24.792","121.729"
"08BEAC0A01C8","雲林縣縣立大新國小","雲林縣西螺鎮大新里二一五號","23.789","120.486"
"08BEAC25290C","新竹縣縣立沙坑國小(2020)",,"24.739","121.161"
"08BEAC0A05BE","臺南市市立樹林國小","臺南市七股區樹林里65之11號","23.111","120.155"
"08BEAC0A059C","嘉義縣縣立松山國小","嘉義縣民雄鄉松山村松仔腳43之1號","23.54","120.475"
"08BEAC0A05A8","嘉義縣縣立同仁國小","嘉義縣中埔鄉同仁村24號","23.403","120.512"
"08BEAC0A05C2","臺南市市立歸仁國中","臺南市歸仁區文化里文化街二段2號","22.97","120.294"
"08BEAC0A058E","桃園市市立廣興國小","桃園市八德區廣興路601巷25號","24.945","121.283"
"08BEAC0A0568","雲林縣縣立水燦林國小-和安分校","雲林縣水林鄉水北村文化路四五號","23.538","120.265"
"08BEAC0A0554","雲林縣縣立山內國小","雲林縣元長鄉山內村南山路三號","23.679","120.312"
"08BEAC0A053A","臺南市市立學甲國中","臺南市學甲區華宗路540號","23.237","120.184"
"08BEAC0A054A","桃園市市立南興國小","桃園市大溪區仁和路二段135號","24.903","121.267"
"08BEAC0A0526","嘉義縣縣立嘉新國中","嘉義縣太保市中山路一段586巷7號","23.5","120.378"
"08BEAC252CC6","新竹縣縣立清水國小(2020)",,"24.867","121.136"
"08BEAC252CC2","花蓮縣縣立信義國小(2020)",,"23.971","121.606"
"08BEAC0A0874","桃園市市立山腳國小","桃園市蘆竹區南山路三段440號","25.088","121.288"
"74DA38F7C3BA","新北市天生國小",,"25.174","121.441"
"74DA38F7C3B6","新北市淡水國小",,"25.173","121.441"
"74DA38F7C370","市立幸安國小","臺北市大安區民炤里仁愛路3段22號","25.036","121.534"
"74DA38F211D6","屏東縣縣立口社國小","[901]屏東縣三地門鄉口社村信義巷65號","22.766","120.645"
"74DA38F20FE8","高雄市市立安招國小","高雄市安招國小 高雄市燕巢區瓊林里安招路170號","22.79","120.337"
"08BEAC0A0624","嘉義縣縣立新港國中","嘉義縣新港鄉福德村福德路106號","23.558","120.343"
"08BEAC0A04CC","臺中市立逢甲國小","臺中市北屯區北坑巷60號","24.168","120.759"
"08BEAC0A0364","臺中市立龍港國小","臺中市龍井區麗水里三港路1號","24.199","120.501"
"08BEAC0A0360","臺中市立何厝國小","臺中市西屯區重慶路1號","24.164","120.654"
"08BEAC0A021C","嘉義縣縣立太興國小","嘉義縣梅山鄉太興村4號","23.543","120.634"
"08BEAC0A0226","臺南市市立嘉南國小","臺南市六甲區龍湖里珊瑚路301號","23.218","120.365"
"08BEAC0A01DA","嘉義縣縣立新岑國小","嘉義縣布袋鎮新岑里4號","23.343","120.174"
"08BEAC0A0620","桃園市市立新莊國小","桃園市蘆竹區大新路380巷121號","25.028","121.247"
"74DA38F20E22","高雄市市立鳥松國中","高雄市立鳥松國民中學 高雄市鳥松區鳥松里29鄰松埔北巷5-1號","22.666","120.371"
"08BEAC2528A8","嘉義市市立興嘉國小(2020)",,"23.465","120.438"
"08BEAC252872","屏東縣縣立東勢國小(2020)","[912]屏東縣內埔鄉東勢村大同路三段20號","22.637","120.574"
"08BEAC0A0834","臺南市市立山上國小","臺南市山上區南洲里42號","23.101","120.355"
"74DA38F7C3D6","市立懷生國小","臺北市中山區埤頭里安東街16巷2號","25.045","121.541"
"08BEAC0A0722","桃園市市立光華國小","桃園市復興區華陵里四鄰12號","24.655","121.4"
"08BEAC0A070C","桃園市市立新屋高級中等學校附設國中","桃園市新屋區中興路111號","24.97","121.102"
"08BEAC25286A","新竹縣縣立寶山國中莒光分校(2020)",,"24.737","121.026"
"08BEAC0A0584","嘉義縣縣立瑞峰國小","嘉義縣梅山鄉瑞峰村生毛樹19號之1","23.556","120.669"
"08BEAC0A0540","臺南市市立西門實驗小學","臺南市安平區安北路180號","23.003","120.159"
"08BEAC0A052C","嘉義縣縣立梅北國小","嘉義縣梅山鄉梅北村民生街1號","23.587","120.552"
"08BEAC0A0542","嘉義縣縣立鹿草國中","嘉義縣鹿草鄉鹿草村439號","23.41","120.313"
"08BEAC0A06F2","臺南市市立南安國小","臺南市安定區南安里62號","23.099","120.225"
"08BEAC2529C8","屏東縣縣立玉光國小(2020)","[931]屏東縣佳冬鄉玉光村民學路81號","22.427","120.565"
"08BEAC2529C0","屏東縣縣立泰山國小(2020)","[906]屏東縣高樹鄉泰山村產業路84號","22.788","120.614"
"08BEAC0A067A","雲林縣縣立公誠國小","雲林縣斗六市鎮北里北平路九五號","23.715","120.539"
"08BEAC252992","宜蘭縣縣立公館國小(2020)",,"24.736","121.816"
"08BEAC0A053E","嘉義縣縣立成功國小","嘉義縣水上鄉三界村153號","23.432","120.475"
"08BEAC0A054E","臺南市市立西港區成功國小","臺南市西港區竹林里11號","23.121","120.181"
"74DA38F20F1A","高雄市市立建國國小","高雄市建國國小 高雄市前金區自立二路111號","22.635","120.298"
"08BEAC245FAE","花蓮縣縣立萬寧國小(2020)",,"23.254","121.298"
"08BEAC245F92","金門縣縣立湖埔國小(2020)","[892]金門縣金寧鄉湖下196號","24.457","118.308"
"08BEAC25298A","宜蘭縣縣立古亭國小(2020)",,"24.772","121.798"
"74DA38F20F0C","高雄市市立鼓山國小","高雄市鼓山國小 高雄市鼓山區臨海二路50號","22.624","120.271"
"74DA38F20EA0","新竹縣縣立桃山國小","[311]新竹縣五峰鄉桃山村15鄰243號","24.591","121.107"
"08BEAC2528D4","嘉義市市立嘉北國小(2020)",,"23.493","120.455"
"08BEAC252906","屏東縣縣立瑞光國小(2020)","[900]屏東縣屏東市興豐路86號","22.681","120.51"
"08BEAC0A055E","嘉義縣縣立文昌國小","嘉義縣新港鄉宮前村古民街12號","23.554","120.35"
"08BEAC245EEE","屏東縣縣立豐田國小(2020)","[912]屏東縣內埔鄉豐田村新中路49號","22.627","120.541"
"08BEAC245EC8","宜蘭縣縣立士敏國小(2020)",,"24.593","121.854"
"08BEAC245ECA","新竹縣縣立員崠國小(2020)",,"24.714","121.098"
"08BEAC245EDC","宜蘭縣縣立大進國小(2020)",,"24.634","121.716"
"08BEAC245EE8","屏東縣縣立榮華國小(2020)","[912]屏東縣內埔鄉建興村建興路216號","22.661","120.565"
"74DA38F7C600","市立三民國中","臺北市內湖區湖興里民權東路6段45號","25.07","121.586"
"74DA38F2107E","高雄市市立觀音國小","高雄市觀音國小 高雄市大社區觀音里文明路100號","22.723","120.355"
"08BEAC245FAA","澎湖縣縣立合橫國小(2020)",,"23.639","119.531"
"08BEAC0A047A","桃園市市立茄苳國小","桃園市八德區永豐路155號","24.965","121.278"
"08BEAC0A0470","桃園市市立瑞梅國小","桃園市楊梅區梅溪里19鄰三民北路26巷41號","24.91","121.171"
"08BEAC0A049C","桃園市市立大竹國中","桃園市蘆竹區大竹里四鄰國中巷35號","25.023","121.258"
"08BEAC0A0496","臺南市市立延平國小","臺南市佳里區頂廍里136號","23.179","120.153"
"74DA38F210B2","高雄市市立昭明國小","高雄市昭明國小 高雄市大寮區鳳林一路300巷80號","22.542","120.408"
"08BEAC245F16","澎湖縣縣立隘門國小(2020)",,"23.564","119.636"
"08BEAC245F5A","澎湖縣縣立中山國小(2020)",,"23.557","119.582"
"08BEAC245F1C","澎湖縣縣立將軍國小(2020)",,"23.364","119.525"
"08BEAC245F50","屏東縣縣立牡丹國中(2020)","[945]屏東縣牡丹鄉石門村石門路1之1號","22.129","120.776"
"08BEAC245F10","屏東縣縣立萬丹國中(2020)","[913]屏東縣萬丹鄉四維村萬丹路2段5號","22.597","120.488"
"08BEAC245F12","宜蘭縣縣立羅東國小(2020)",,"24.674","121.772"
"08BEAC0A087E","桃園市市立龍潭國中","桃園市龍潭區中正里龍華路460號","24.856","121.217"
"08BEAC0A089A","臺南市市立大內國中","臺南市大內區內江里319之1號","23.112","120.365"
"08BEAC0A0880","雲林縣縣立龍岩國小","雲林縣褒忠鄉民生路廿八巷十五號","23.722","120.308"
"08BEAC0A0856","嘉義縣縣立大埔國中小學","嘉義縣大埔鄉竹圍仔5號","23.293","120.591"
"74DA38F7C4B4","新北市安和國小",,"24.989","121.464"
"08BEAC0A07C4","桃園市市立上大國小","桃園市觀音區上大里大湖路一段540號","24.979","121.147"
"74DA38F7C3BC","新北市育英國小",,"25.197","121.445"
"08BEAC245EAA","宜蘭縣縣立順安國小(2020)",,"24.654","121.763"
